ID,name,basin,river,provider,iso,DrainageArea_prov,DrainageArea_LDD,lat,long,LISFLOOD_X,LISFLOOD_Y,SourceGlo,GlofasV5,Obs_start,Obs_end,Split_date_CALstart,KGEmod,JSD,Function,Region,Basin,glacier_frac
4,Barby,Elbe,Elbe,1004,DE,94060.0,93699.47,51.984836,11.882244,11.875,52.025,NRT,calibrated,01/01/1980 00:00',01/01/2000 00:00',01/01/1980 00:00',0.843939,0.0302549,KGEJSD,Europe,ElbeOderEmsWeser,0.0
5,Wittenberg / Lutherstadt,Elbe,Elbe,1004,DE,61879.0,60938.53,51.856531,12.646309,12.625,51.875,NRT,calibrated,01/01/1980 00:00',01/01/2011 00:00',01/01/1991 00:00',0.834721,0.00902574,KGEJSD,Europe,ElbeOderEmsWeser,0.0
6,Malliss OP,Elbe,Muritz-Elde,1004,DE,2879.0,3161.95,53.190627,11.345254,11.425,53.175,NRT,calibrated,01/01/1980 00:00',31/12/2010 00:00',31/12/1990 00:00',0.867403,0.0809633,KGEJSD,Europe,ElbeOderEmsWeser,0.0
9,Rathenow UP,Elbe,Lower Havel,1004,DE,19288.46,18271.3,52.607446,12.321014,12.325,52.625,efas,calibrated,01/01/1990 00:00',19/05/2010 00:00',17/05/1990 00:00',0.787487,0.0735495,KGEJSD,Europe,ElbeOderEmsWeser,0.0
11,Calbe Grizehne,Elbe,Saale,1004,DE,23719.0,23560.46,51.916414,11.812211,11.825,51.925,HIST,calibrated,01/01/1980 00:00',31/12/2019 00:00',03/05/1997 00:00',0.849686,0.0399889,KGEJSD,Europe,ElbeOderEmsWeser,0.0
12,Tangermuende,Elbe,Elbe,1004,DE,97780.0,97683.92,52.541308,11.978054,11.975,52.575,HIST,calibrated,01/01/1980 00:00',01/01/2011 00:00',29/12/1990 00:00',0.844505,0.0325032,KGEJSD,Europe,ElbeOderEmsWeser,0.0
14,Wittenberge,Elbe,Elbe,1004,DE,123532.0,122945.86,52.985531,11.759441,11.775,52.975,NRT,calibrated,01/01/1980 00:00',01/01/2011 00:00',27/12/1990 00:00',0.850485,0.0228599,KGEJSD,Europe,ElbeOderEmsWeser,0.0
17,Havelberg Stadt,Elbe,Lower Havel waterway,1004,DE,23858.0,23639.57,52.824075,12.07804,12.075,52.825,NRT,calibrated,01/01/1980 00:00',31/12/2019 00:00',29/04/1997 00:00',0.784232,0.0721023,KGEJSD,Europe,ElbeOderEmsWeser,0.0
18,Halle-Trotha UP,Elbe,Saale,1004,DE,17988.0,17857.22,51.514254,11.954551,11.925,51.525,NRT,calibrated,01/01/1980 00:00',31/12/2019 00:00',03/05/1997 00:00',0.841773,0.0723433,KGEJSD,Europe,ElbeOderEmsWeser,0.0
19,Neu Darchau,Elbe,Elbe,1004,DE,131950.0,131611.79,53.232262,10.8888,10.975,53.225,NRT,calibrated,01/01/1980 00:00',01/01/2011 00:00',29/12/1990 00:00',0.875114,0.0104381,KGEJSD,Europe,ElbeOderEmsWeser,0.0
26,Hohensaaten-Finow,Oder,Oder,1004,DE,109564.0,111216.01,52.864739,14.141123,14.125,52.825,HIST,calibrated,16/08/2012 00:00',01/01/2024 00:00',16/08/2012 00:00',0.782066,0.015284,KGEJSD,Europe,ElbeOderEmsWeser,0.0
27,Leun (Neu),Rhine,Lahn,1004,DE,3571.0,3632.23,50.545134,8.355275,8.375,50.525,NRT,calibrated,16/08/2012 00:00',01/01/2024 00:00',16/08/2012 00:00',0.782363,0.0653841,KGEJSD,Europe,RhineMaasScheldtSeine,0.0
28,Maxau,Rhine,Rhine,1004,DE,50196.0,50777.11,49.038957,8.305614,8.275,49.025,NRT,calibrated,23/08/2012 00:00',01/01/2024 00:00',23/08/2012 00:00',0.935277,0.0127558,KGEJSD,Europe,RhineMaasScheldtSeine,0.06028545713479082
31,Frankfurt-Osthafen,Rhine,Main,1004,DE,24764.0,24726.77,50.105711,8.715027,8.725,50.125,NRT,calibrated,13/10/2013 00:00',01/01/2024 00:00',13/10/2013 00:00',0.889361,0.017431,KGEJSD,Europe,RhineMaasScheldtSeine,0.0
33,Plochingen,Rhine,Neckar,1004,DE,3995.0,3948.83,48.707411,9.419239,9.425,48.725,NRT,calibrated,16/08/2012 00:00',01/01/2024 00:00',16/08/2012 00:00',0.804563,0.03352,KGEJSD,Europe,RhineMaasScheldtSeine,0.0
36,Kaub,Rhine,Rhine,1004,DE,103488.0,103792.93,50.085407,7.764994,7.775,50.075,HIST,calibrated,01/01/1980 00:00',31/12/2019 00:00',05/05/1997 00:00',0.913265,0.0163938,KGEJSD,Europe,RhineMaasScheldtSeine,0.029492571960151707
38,Cochem,Rhine,Moselle,1004,DE,27088.0,27071.3,50.143322,7.16831,7.175,50.125,NRT,calibrated,28/09/2012 00:00',01/01/2024 00:00',28/09/2012 00:00',0.927403,0.0110456,KGEJSD,Europe,RhineMaasScheldtSeine,0.0
40,Koeln,Rhine,Rhine,1004,DE,144231.54,144451.78,50.936914,6.963322,6.975,50.925,HIST,calibrated,01/01/1980 00:00',31/12/2019 00:00',30/04/1997 00:00',0.92017,0.0162123,KGEJSD,Europe,RhineMaasScheldtSeine,0.021191294932345204
42,Kalkofen (Neu),Rhine,Lahn,1004,DE,5304.0,5313.59,50.317832,7.889898,7.925,50.325,NRT,calibrated,16/08/2012 00:00',01/01/2024 00:00',16/08/2012 00:00',0.826803,0.0696192,KGEJSD,Europe,RhineMaasScheldtSeine,0.0
45,Worms,Rhine,Rhine,1004,DE,68936.0,69519.79,49.631858,8.377548,8.375,49.675,NRT,calibrated,17/08/2012 00:00',01/01/2024 00:00',17/08/2012 00:00',0.939505,0.00898641,KGEJSD,Europe,RhineMaasScheldtSeine,0.04403238850554537
47,Ruhrort,Rhine,Rhine,1004,DE,153176.0,153667.78,51.455309,6.727942,6.725,51.475,HIST,calibrated,01/01/1980 00:00',31/12/2019 00:00',02/05/1997 00:00',0.923757,0.0186231,KGEJSD,Europe,RhineMaasScheldtSeine,0.01992037912689065
51,St.Arnual,Rhine,Saar,1004,DE,3945.0,3960.22,49.214863,7.022796,7.025,49.225,NRT,calibrated,23/08/2012 00:00',01/01/2024 00:00',23/08/2012 00:00',0.889676,0.0204603,KGEJSD,Europe,RhineMaasScheldtSeine,0.0
58,Düsseldorf,Rhine,Rhine,1004,DE,147680.43,147773.77,51.225463,6.769909,6.725,51.225,NRT,calibrated,16/08/2012 00:00',01/01/2024 00:00',16/08/2012 00:00',0.943695,0.0150872,KGEJSD,Europe,RhineMaasScheldtSeine,0.020714908739156282
59,Steinbach,Rhine,Main,1004,DE,17914.2,17964.73,50.009961,9.60371,9.625,50.025,NRT,calibrated,16/08/2012 00:00',01/01/2024 00:00',16/08/2012 00:00',0.879503,0.00541015,KGEJSD,Europe,RhineMaasScheldtSeine,0.0
60,Fremersdorf,Rhine,Saar,1004,DE,6983.0,7016.23,49.408914,6.648444,6.675,49.375,NRT,calibrated,24/08/2012 00:00',01/01/2024 00:00',24/08/2012 00:00',0.900586,0.0165993,KGEJSD,Europe,RhineMaasScheldtSeine,0.0
62,Bonn,Rhine,Rhine,1004,DE,140901.0,141121.85,50.736364,7.10807,7.125,50.725,NRT,calibrated,16/08/2012 00:00',01/01/2024 00:00',16/08/2012 00:00',0.946236,0.0132545,KGEJSD,Europe,RhineMaasScheldtSeine,0.021691327928244467
63,Speyer,Rhine,Rhine,1004,DE,53131.0,53071.72,49.323786,8.44876,8.475,49.275,NRT,calibrated,17/08/2012 00:00',01/01/2024 00:00',17/08/2012 00:00',0.936382,0.0117479,KGEJSD,Europe,RhineMaasScheldtSeine,0.05767896120844875
73,Zwickau-Poelbitz,Elbe,Zwickau Mulde,1007,DE,1030.0,1025.17,50.740921,12.493595,12.475,50.725,NRT,calibrated,01/01/1980 00:00',31/12/2021 00:00',07/09/1994 00:00',0.744969,0.0218375,KGEJSD,Europe,ElbeOderEmsWeser,0.0
75,Wechselburg 1,Elbe,Zwickau Mulde,1007,DE,2107.0,2142.26,51.006848,12.772535,12.775,51.025,NRT,calibrated,21/04/2009 00:00',16/03/2023 00:00',21/04/2009 00:00',0.776079,0.0120556,KGEJSD,Europe,ElbeOderEmsWeser,0.0
78,Torgau,Elbe,Elbe,1007,DE,55211.0,55441.79,51.553713,13.01012,13.025,51.575,HIST,calibrated,01/01/1980 00:00',01/01/2023 00:00',22/12/1992 00:00',0.832615,0.0141756,KGEJSD,Europe,ElbeOderEmsWeser,0.0
79,Lichtenwalde 1,Elbe,Zschopau,1007,DE,1575.0,1573.39,50.886191,13.020015,13.025,50.875,NRT,calibrated,01/01/1980 00:00',31/12/2021 00:00',06/09/1994 00:00',0.75882,0.0162362,KGEJSD,Europe,ElbeOderEmsWeser,0.0
81,Kleindalzig,Elbe,White Elster,1007,DE,2891.0,2849.03,51.210414,12.291583,12.275,51.225,NRT,calibrated,01/01/1980 00:00',31/12/2021 00:00',30/10/1991 00:00',0.792456,0.029743,KGEJSD,Europe,ElbeOderEmsWeser,0.0
83,Bad Dueben 1,Elbe,United Mulde,1007,DE,6171.0,6188.68,51.590779,12.580715,12.575,51.575,NRT,calibrated,01/01/1980 00:00',31/12/2021 00:00',05/11/1994 00:00',0.804582,0.00336032,KGEJSD,Europe,ElbeOderEmsWeser,0.0
85,Boehlen 1,Elbe,Pleisse,1007,DE,1359.0,1289.89,51.211917,12.387218,12.375,51.225,NRT,calibrated,01/01/1980 00:00',31/12/2021 00:00',06/09/1994 00:00',0.731631,0.0660847,KGEJSD,Europe,ElbeOderEmsWeser,0.0
86,Neuwiese,Elbe,Blacl Elster,1007,DE,669.0,679.12,51.476458,14.197033,14.225,51.475,NRT,calibrated,01/01/1980 00:00',31/12/2021 00:00',08/09/1993 00:00',0.768524,0.0281653,KGEJSD,Europe,ElbeOderEmsWeser,0.0
89,Dresden,Elbe,Elbe,1007,DE,53096.0,53051.05,51.054481,13.738831,13.725,51.075,HIST,calibrated,01/01/1980 00:00',01/01/2023 00:00',23/12/1992 00:00',0.822708,0.00946961,KGEJSD,Europe,ElbeOderEmsWeser,0.0
93,Spreewitz,Elbe,Spree,1007,DE,2033.0,2096.91,51.510861,14.404286,14.425,51.525,NRT,calibrated,01/01/1980 00:00',31/12/2021 00:00',06/09/1994 00:00',0.70285,0.0124871,KGEJSD,Europe,ElbeOderEmsWeser,0.0
94,Goerlitz,Oder,Lusatian Neisse,1007,DE,1621.0,1642.46,51.161195,14.993189,14.975,51.125,NRT,calibrated,21/04/2009 00:00',16/03/2023 00:00',21/04/2009 00:00',0.768478,0.0231104,KGEJSD,Europe,ElbeOderEmsWeser,0.0
95,Gornja Radgona,Danube,Mur,1005,SI,10197.2,10411.5,46.6811,15.9956,16.025,46.675,NRT,calibrated,13/04/2009 00:00',01/01/2024 00:00',13/04/2009 00:00',0.86027,0.0118127,KGEJSD,Europe,Danube,0.0020274406926351573
96,Ptuj,Danube,Drava,1005,SI,13664.1,13778.92,46.4169,15.8675,15.825,46.425,NRT,calibrated,14/04/2009 00:00',01/01/2024 00:00',14/04/2009 00:00',0.868333,0.00832332,KGEJSD,Europe,Danube,0.07822603300816452
98,Radovljica,Danube,Sava,1005,SI,907.97,919.49,46.34,14.1654,14.175,46.325,NRT,calibrated,13/04/2009 00:00',01/01/2024 00:00',13/04/2009 00:00',0.621529,0.1199,KGEJSD,Europe,Danube,0.0
106,Veliko Širje,Danube,Savinja,1005,SI,1841.9,1798.91,46.0919,15.1924,15.225,46.075,NRT,calibrated,13/04/2009 00:00',01/01/2024 00:00',13/04/2009 00:00',0.752053,0.0387444,KGEJSD,Europe,Danube,0.0
107,Podbočje,Danube,Krka,1005,SI,2238.12,1793.17,45.8644,15.4555,15.525,45.875,NRT,calibrated,13/04/2009 00:00',01/01/2024 00:00',13/04/2009 00:00',0.75158,0.0354071,KGEJSD,Europe,Danube,0.0
108,Solkan,Soca/Isonzo,Soca,1005,SI,1572.8,1437.89824,45.98162,13.65517,13.625,45.975,NRT,calibrated,29/05/2009 00:00',01/01/2024 00:00',29/05/2009 00:00',0.543287,0.137786,KGEJSD,Europe,SouthEastTurkeyIsraelDon,0.0
109,Bollendorf,Rhine,Saar,1010,DE,3222.0,3277.75,49.850921,6.359171,6.325,49.825,NRT,calibrated,19/04/2009 00:00',01/01/2024 00:00',19/04/2009 00:00',0.858317,0.0242452,KGEJSD,Europe,RhineMaasScheldtSeine,0.0
113,Martinstein,Rhine,Nahe,1010,DE,1468.0,1501.41,49.803795,7.536,7.525,49.825,NRT,calibrated,19/04/2009 00:00',01/01/2024 00:00',19/04/2009 00:00',0.778539,0.0288002,KGEJSD,Europe,RhineMaasScheldtSeine,0.0
114,Odenbach,Rhine,Glan,1010,DE,1085.53,1067.25,49.68892,7.652247,7.675,49.675,NRT,calibrated,19/04/2009 00:00',01/01/2024 00:00',19/04/2009 00:00',0.767427,0.0158705,KGEJSD,Europe,RhineMaasScheldtSeine,0.0
117,Bad Vilbel,Rhine,Nidda,1009,DE,1619.3,1701.2,50.182246,8.741063,8.725,50.175,NRT,calibrated,30/10/2008 00:00',01/01/2024 00:00',30/10/2008 00:00',0.77388,0.0394535,KGEJSD,Europe,RhineMaasScheldtSeine,0.0
118,Hanau,Rhine,Kinzig,1009,DE,921.2,911.78,50.132084,8.94581,8.975,50.175,NRT,calibrated,30/10/2008 00:00',01/01/2024 00:00',30/10/2008 00:00',0.80086,0.0407492,KGEJSD,Europe,RhineMaasScheldtSeine,0.0
120,Marburg,Rhine,Lahn,1009,DE,1666.2,1665.38,50.798714,8.764476,8.775,50.775,NRT,calibrated,30/10/2008 00:00',01/01/2024 00:00',30/10/2008 00:00',0.746113,0.0227772,KGEJSD,Europe,RhineMaasScheldtSeine,0.0
125,Kemihaara,Kemijoki,Kemijoki,1011,FI,8538.0,8560.75,67.198533,27.785512,27.825,67.175,efas,calibrated,01/01/1980 00:00',31/12/2012 00:00',15/11/1992 00:00',0.775369,0.0202135,KGEJSD,Europe,KemjokiPaatsjokiTorneBIS,0.0
128,Vikajärvi  luusua,Kemijoki,Raudanjoki,1011,FI,3017.0,2906.64,66.621822,26.219519,26.225,66.625,efas,calibrated,01/01/1994 00:00',31/12/2012 00:00',01/01/1994 00:00',0.872324,0.0587465,KGEJSD,Europe,KemjokiPaatsjokiTorneBIS,0.0
130,Ounasjoki. Köngäs,Kemijoki,Ounasjoki,1011,FI,4488.0,4531.83,67.878636,24.844374,24.875,67.925,efas,calibrated,01/01/1980 00:00',31/12/2012 00:00',15/11/1992 00:00',0.856847,0.0183296,KGEJSD,Europe,KemjokiPaatsjokiTorneBIS,0.0
131,Unari  luusua,Kemijoki,Meltausjoki,1011,FI,1198.0,1118.21,67.130471,25.747274,25.775,67.125,efas,calibrated,01/01/1982 00:00',31/12/2012 00:00',15/11/1992 00:00',0.864237,0.0265595,KGEJSD,Europe,KemjokiPaatsjokiTorneBIS,0.0
132,Ounasjoki. Marraskoski,Kemijoki,Ounasjoki,1011,FI,12303.0,12172.5,66.798477,25.420245,25.425,66.825,NRT,calibrated,28/05/2009 00:00',01/01/2024 00:00',28/05/2009 00:00',0.805445,0.0983471,KGEJSD,Europe,KemjokiPaatsjokiTorneBIS,0.0
133,Valajaskoski,Kemijoki,Kemijoki,1011,FI,47425.0,47443.17,66.424052,25.540257,25.475,66.425,NRT,calibrated,27/04/2002 00:00',01/01/2024 00:00',24/04/2003 00:00',0.899593,0.0422939,KGEJSD,Europe,KemjokiPaatsjokiTorneBIS,0.0
134,Isohaara,Kemijoki,Kemijoki,1011,FI,50683.0,50998.22,65.792669,24.545286,24.575,65.825,efas,calibrated,01/01/1980 00:00',31/12/2012 00:00',15/11/1992 00:00',0.866167,0.0315048,KGEJSD,Europe,KemjokiPaatsjokiTorneBIS,0.0
135,Muonionjoki. Kaaresuvanto,Torne,Muonio,1011,FI,5732.0,5891.58,68.442281,22.494588,22.475,68.425,NRT,calibrated,01/11/2008 00:00',01/01/2024 00:00',01/11/2008 00:00',0.75449,0.226944,KGE,Europe,KemjokiPaatsjokiTorneBIS,0.0
136,Muonionjoki. Muonio,Torne,Muonio,1011,FI,9259.0,9297.14,67.945748,23.660143,23.625,67.975,NRT,calibrated,01/11/2008 00:00',01/01/2024 00:00',01/11/2008 00:00',0.696888,0.210366,KGE,Europe,KemjokiPaatsjokiTorneBIS,0.0
137,Tengeliönjoki. Haapakoski,Torne,Tengelionjoki,1011,FI,3089.0,2976.77,66.381335,23.783981,23.725,66.425,efas,calibrated,01/01/1980 00:00',31/12/2012 00:00',15/11/1992 00:00',0.845404,0.0614103,KGEJSD,Europe,KemjokiPaatsjokiTorneBIS,0.0
138,Inarijoki. Karigasniemi,Tana,Anarjohka,1011,FI,3133.0,2997.81,69.395731,25.844885,25.825,69.375,NRT,calibrated,01/11/2008 00:00',01/01/2024 00:00',01/11/2008 00:00',0.588335,0.215775,KGE,Europe,SwedenNorway,0.0
139,Onnelansuvanto,Tana,Tana,1011,FI,10864.0,10784.83,69.911992,27.026975,26.975,69.925,NRT,calibrated,01/11/2008 00:00',01/01/2024 00:00',01/11/2008 00:00',0.511572,0.26971,KGE,Europe,SwedenNorway,0.0
140,Utsjoki. Patoniva,Tana,Utsjoki,1011,FI,1520.0,1529.35,69.783662,26.999533,27.025,69.775,NRT,calibrated,01/11/2008 00:00',01/01/2024 00:00',01/11/2008 00:00',0.718555,0.0214223,KGEJSD,Europe,SwedenNorway,0.0
141,Kettujoki,Paatsjoki,Kettujoki,1011,FI,2215.0,2264.18,68.919106,26.74754,26.775,68.925,efas,calibrated,01/01/1980 00:00',31/12/2012 00:00',15/11/1992 00:00',0.889811,0.0422831,KGEJSD,Europe,KemjokiPaatsjokiTorneBIS,0.0
142,Juutuanjoki,Paatsjoki,Juutuanjoki,1011,FI,5160.0,5168.96,68.889188,26.925191,26.975,68.925,NRT,calibrated,08/09/2008 00:00',01/01/2024 00:00',08/09/2008 00:00',0.890256,0.0281843,KGEJSD,Europe,KemjokiPaatsjokiTorneBIS,0.0
143,Ivalojoki. Pajakoski,Paatsjoki,Ivalo,1011,FI,3345.0,3455.16,68.554588,27.274471,27.275,68.575,NRT,calibrated,01/11/2008 00:00',01/01/2024 00:00',01/11/2008 00:00',0.838461,0.0385891,KGEJSD,Europe,KemjokiPaatsjokiTorneBIS,0.0
144,Kaitakoski,Paatsjoki,Paatsjoki,1011,FI,14575.0,14645.26,68.908733,28.448919,28.475,68.925,efas,calibrated,01/01/1980 00:00',31/12/2012 00:00',15/11/1992 00:00',0.61542,0.0969678,KGEJSD,Europe,KemjokiPaatsjokiTorneBIS,0.0
145,Kallio 2,Torne,Muonio,1014,SE,14477.1,14370.88,67.224893,23.543048,23.575,67.225,NRT,calibrated,02/01/2011 00:00',01/01/2024 00:00',02/01/2011 00:00',0.768645,0.0997368,KGEJSD,Europe,KemjokiPaatsjokiTorneBIS,0.0
148,Granåker,Ume,Vindel,1014,SE,11846.37,11793.33,64.239979,19.666241,19.725,64.225,NRT,calibrated,02/01/2011 00:00',01/01/2024 00:00',02/01/2011 00:00',0.852757,0.0347978,KGEJSD,Europe,SwedenNorway,0.0
149,Sorsele2,Ume,Vindel,1014,SE,6054.39,6052.83,65.542207,17.508312,17.475,65.525,NRT,calibrated,02/01/2011 00:00',01/01/2024 00:00',02/01/2011 00:00',0.830067,0.0155956,KGEJSD,Europe,SwedenNorway,0.0
151,Guben 2,Oder,Lusatian Neisse,1015,DE,4080.0,4127.1,51.969154,14.706919,14.725,51.975,HIST,calibrated,31/07/2012 00:00',01/01/2024 00:00',31/07/2012 00:00',0.796936,0.0225919,KGEJSD,Europe,ElbeOderEmsWeser,0.0
153,Lobith,Rhine,Rhine,1008,NL,160800.0,159556.62,51.844444,6.108333,6.075,51.875,NRT,calibrated,25/10/2008 00:00',01/01/2024 00:00',25/10/2008 00:00',0.930619,0.0218894,KGEJSD,Europe,RhineMaasScheldtSeine,0.019185168077258875
155,Fischerau / Ager,Danube,Ager,1013,AT,1256.1,1204.05,48.085815,13.838047,13.825,48.075,NRT,calibrated,07/04/2011 00:00',01/01/2024 00:00',07/04/2011 00:00',0.60712,0.157867,KGE,Europe,Danube,0.0
156,Achleiten / Donau,Danube,Danube,1013,AT,76653.3,76461.18,48.582691,13.503336,13.525,48.575,NRT,calibrated,16/05/2009 00:00',01/01/2024 00:00',16/05/2009 00:00',0.912329,0.0180372,KGEJSD,Europe,Danube,0.04427669720636784
158,Kienstock,Danube,Danube,1013,AT,95970.0,95824.46,48.382792,15.46122,15.525,48.375,NRT,calibrated,31/10/2008 00:00',01/01/2024 00:00',31/10/2008 00:00',0.891418,0.0171419,KGEJSD,Europe,Danube,0.03576698319195289
159,Korneuburg,Danube,Danube,1013,AT,101536.6,101383.68,48.329485,16.332121,16.325,48.325,NRT,calibrated,31/10/2008 00:00',01/01/2024 00:00',31/10/2008 00:00',0.905308,0.0163259,KGEJSD,Europe,Danube,0.033805746983731906
160,Linz,Danube,Danube,1013,AT,79490.1,79422.03,48.30692,14.284912,14.325,48.275,efas,calibrated,01/01/1990 00:00',01/01/2000 00:00',01/01/1990 00:00',0.858535,0.0356366,KGEJSD,Europe,Danube,0.04262606252598896
161,Wildungsmauer,Danube,Danube,1013,AT,103992.7,103330.24,48.114803,16.804302,16.875,48.125,NRT,calibrated,31/10/2008 00:00',01/01/2024 00:00',31/10/2008 00:00',0.906694,0.0190923,KGEJSD,Europe,Danube,0.03316890706985645
164,Lavamünd Ort,Danube,Drava,1013,AT,11051.8,11056.11,46.64062,14.942619,14.825,46.625,NRT,calibrated,19/11/2008 00:00',01/01/2024 00:00',19/11/2008 00:00',0.764351,0.0179622,KGEJSD,Europe,Danube,0.09749091996024674
165,Lienz-Peggetz,Danube,Drava,1013,AT,1876.2,1884.39,46.824539,12.784082,12.775,46.825,NRT,calibrated,31/10/2008 00:00',01/01/2024 00:00',31/10/2008 00:00',0.900549,0.0121128,KGEJSD,Europe,Danube,0.2802950352178429
168,Admont (Enns),Danube,Enns,1013,AT,2637.5,2642.15,47.581187,14.461733,14.425,47.575,HIST,calibrated,02/01/1985 00:00',01/01/2013 00:00',17/04/1989 00:00',0.849403,0.0202049,KGEJSD,Europe,Danube,0.015859561037201892
169,Steyr (Ortskai),Danube,Enns,1013,AT,5915.4,6123.52,48.043318,14.424931,14.425,48.025,NRT,calibrated,27/11/2009 00:00',01/01/2024 00:00',27/11/2009 00:00',0.771305,0.0477224,KGEJSD,Europe,Danube,0.00684303092334212
173,Federaun,Danube,Gail,1013,AT,1304.9,1405.21,46.569332,13.814816,13.775,46.575,NRT,calibrated,31/10/2008 00:00',01/01/2024 00:00',31/10/2008 00:00',0.333775,0.0707561,KGEJSD,Europe,Danube,0.030293017321263556
175,Gumisch,Danube,Gurk,1013,AT,2555.4,2269.09,46.606288,14.478061,14.475,46.625,NRT,calibrated,31/10/2008 00:00',01/01/2024 00:00',31/10/2008 00:00',0.851625,0.052292,KGEJSD,Europe,Danube,0.0
176,Launsdorf,Danube,Gurk,1013,AT,1243.1,1376.11,46.760439,14.476932,14.525,46.725,NRT,calibrated,31/10/2008 00:00',01/01/2024 00:00',31/10/2008 00:00',0.786894,0.0508341,KGEJSD,Europe,Danube,0.0
180,Jenbach-Rotholz,Danube,Inn,1013,AT,7230.7,7210.88,47.388857,11.789238,11.775,47.375,NRT,calibrated,31/10/2008 00:00',01/01/2024 00:00',31/10/2008 00:00',0.928211,0.0258326,KGEJSD,Europe,Danube,0.31164676487359033
183,Magerbach,Danube,Inn,1013,AT,5118.8,5062.43,47.258747,10.874705,10.875,47.275,NRT,calibrated,31/10/2008 00:00',01/01/2024 00:00',31/10/2008 00:00',0.911818,0.0404922,KGEJSD,Europe,Danube,0.3938432681998296
187,Lienz,Danube,Isel,1013,AT,1198.7,1183.98,46.831632,12.766335,12.725,46.825,NRT,calibrated,31/10/2008 00:00',01/01/2024 00:00',31/10/2008 00:00',0.845697,0.0223986,KGEJSD,Europe,Danube,0.42813305871135304
188,Stiefern,Danube,Kamp,1013,AT,1493.3,1456.49,48.534688,15.690083,15.675,48.575,NRT,calibrated,31/10/2008 00:00',01/01/2024 00:00',31/10/2008 00:00',0.292959,0.296552,KGE,Europe,Danube,0.0
189,Lechaschau,Danube,Lech,1013,AT,1012.2,1093.09,47.497015,10.709677,10.675,47.475,HIST,calibrated,01/01/1980 00:00',01/01/2013 00:00',08/12/1990 00:00',0.837989,0.0339417,KGEJSD,Europe,Danube,0.05779002910982304
190,Deutsch Brodersdorf (Straßenbrücke),Danube,Leitha,1013,AT,,2104.83,47.937903,16.477205,16.475,47.925,efas,calibrated,01/01/1990 00:00',30/03/2010 00:00',01/01/1990 00:00',0.77487,0.0350276,KGEJSD,Europe,Danube,0.0
192,Spittal (Fasan),Danube,Lieser,1013,AT,1035.5,1037.2,46.807338,13.494837,13.475,46.825,NRT,calibrated,31/10/2008 00:00',01/01/2024 00:00',31/10/2008 00:00',0.800662,0.00982365,KGEJSD,Europe,Danube,0.12222318893062319
195,Kolbnitz a. d. Tauernbahn VHP,Danube,Moll,1013,AT,1043.8,1057.74,46.875108,13.302641,13.275,46.875,NRT,calibrated,31/10/2008 00:00',01/01/2024 00:00',31/10/2008 00:00',0.80849,0.0805185,KGEJSD,Europe,Danube,0.31956142406899785
200,Mellach,Danube,Mur,1013,AT,7295.5,7233.47,46.902063,15.492877,15.475,46.925,NRT,calibrated,10/02/2010 00:00',01/01/2024 00:00',10/02/2010 00:00',0.82628,0.0281137,KGEJSD,Europe,Danube,0.0029181979026087572
202,St.Georgen ob Judenburt,Danube,Mur,1013,AT,2367.5,2361.65,47.211775,14.499123,14.425,47.175,efas,calibrated,10/02/2010 00:00',01/01/2024 00:00',10/02/2010 00:00',0.787109,0.0433337,KGEJSD,Europe,Danube,0.00893812609469465
207,Siezenheim,Danube,Saalach,1013,AT,1139.1,1130.32,47.811555,12.974216,12.925,47.775,NRT,calibrated,31/10/2008 00:00',01/01/2024 00:00',31/10/2008 00:00',0.771299,0.0125811,KGEJSD,Europe,Danube,0.0
212,Werfen,Danube,Saalach,1013,AT,2953.2,2924.84,47.479884,13.191103,13.175,47.475,NRT,calibrated,31/10/2008 00:00',01/01/2024 00:00',31/10/2008 00:00',0.810999,0.0501502,KGEJSD,Europe,Danube,0.19455886682670864
213,Leibnitz,Danube,Sulm,1013,AT,1102.5,1103.43,46.771039,15.534549,15.525,46.775,NRT,calibrated,11/02/2010 00:00',01/01/2024 00:00',11/02/2010 00:00',0.141807,0.0923608,KGEJSD,Europe,Danube,0.0
214,Raabs an der Thaya,Danube,Thaya,1013,AT,1405.8,1548.18,48.844976,15.499183,15.525,48.825,NRT,calibrated,31/10/2008 00:00',01/01/2024 00:00',31/10/2008 00:00',0.629368,0.0593665,KGEJSD,Europe,Danube,0.0
216,Wels-Lichtenegg,Danube,Traun,1013,AT,3387.1,3495.22,48.141089,13.995787,14.025,48.125,NRT,calibrated,27/11/2009 00:00',01/01/2024 00:00',27/11/2009 00:00',0.789472,0.0220708,KGEJSD,Europe,Danube,0.0
221,Greimpersdorf,Danube,Ybbs,1013,AT,1116.6,1142.86,48.110874,14.891028,14.875,48.125,NRT,calibrated,31/10/2008 00:00',18/09/2022 00:00',31/10/2008 00:00',0.78976,0.0370039,KGEJSD,Europe,Danube,0.0
223,Hart im Zillertal,Danube,Ziller,1013,AT,1094.7,1138.07,47.346304,11.862502,11.875,47.325,NRT,calibrated,31/10/2008 00:00',01/01/2024 00:00',31/10/2008 00:00',0.69482,0.0603774,KGEJSD,Europe,Danube,0.37097393865934913
225,Gisingen,Rhine,Ill,1013,AT,1281.0,1308.25,47.260356,9.578855,9.625,47.275,NRT,calibrated,07/02/2010 00:00',01/01/2024 00:00',07/02/2010 00:00',0.723465,0.0746071,KGEJSD,Europe,RhineMaasScheldtSeine,0.1292298933021351
226,Bangs,Rhine,Rhine,1013,AT,4647.9,4800.11,47.272002,9.533689,9.525,47.225,NRT,calibrated,10/02/2010 00:00',01/01/2024 00:00',10/02/2010 00:00',0.848511,0.0544635,KGEJSD,Europe,RhineMaasScheldtSeine,0.2217112852091979
228,Bezdan,Danube,Danube,1020,RS,210250.0,209116.18,45.854141,18.859776,18.825,45.875,NRT,calibrated,01/11/2008 00:00',01/01/2024 00:00',01/11/2008 00:00',0.851167,0.0185064,KGEJSD,Europe,Danube,0.016389721022593055
231,Kusic,Danube,Nera,1020,RS,1337.0,1491.3,44.870834,21.485225,21.575,44.875,NRT,calibrated,01/11/2008 00:00',01/01/2024 00:00',01/11/2008 00:00',0.790324,0.0497344,KGEJSD,Europe,Danube,0.0
232,Zajecar,Danube,Beli Timok,1020,RS,2150.0,2154.13,43.892142,22.293443,22.325,43.875,NRT,calibrated,01/11/2008 00:00',01/01/2024 00:00',01/11/2008 00:00',0.719023,0.0679714,KGEJSD,Europe,Danube,0.0
234,Jamena,Danube,Sava,1020,RS,64073.0,62328.49,44.877743,19.084006,19.125,44.875,NRT,calibrated,22/08/2009 00:00',01/01/2024 00:00',22/08/2009 00:00',0.832116,0.0430808,KGEJSD,Europe,Danube,0.0
235,Sremaska Mitrovica,Danube,Sava,1020,RS,87996.0,85051.73,44.965672,19.60019,19.625,44.975,NRT,calibrated,01/11/2008 00:00',01/01/2024 00:00',01/11/2008 00:00',0.823846,0.0332556,KGEJSD,Europe,Danube,0.0
236,Radalj,Danube,Drina,1020,RS,17490.0,17847.18,44.41907,19.14799,19.125,44.425,HIST,calibrated,02/01/1990 00:00',01/01/2024 00:00',11/09/1999 00:00',0.796354,0.0330814,KGEJSD,Europe,Danube,0.0
237,Beli Brod,Danube,Kolubara,1020,RS,1896.0,1863.94,44.371198,20.199508,20.225,44.375,NRT,calibrated,11/02/2009 00:00',01/01/2024 00:00',11/02/2009 00:00',0.745372,0.0750973,KGEJSD,Europe,Danube,0.0
239,Bagrdan,Danube,Velika Morava,1020,RS,33446.0,33437.0,44.070498,21.195798,21.275,44.075,NRT,calibrated,01/11/2008 00:00',01/01/2024 00:00',01/11/2008 00:00',0.855405,0.0376725,KGEJSD,Europe,Danube,0.0
240,Kratovska stena,Danube,West Morava,1020,RS,3077.0,3177.39,43.87126,20.118569,20.125,43.875,NRT,calibrated,21/11/2008 00:00',01/01/2024 00:00',21/11/2008 00:00',0.779987,0.0768825,KGEJSD,Europe,Danube,0.0
242,Jasika,Danube,West Morava,1020,RS,14721.0,14721.81,43.608124,21.295077,21.275,43.625,NRT,calibrated,01/11/2008 00:00',01/01/2024 00:00',01/11/2008 00:00',0.791684,0.0532549,KGEJSD,Europe,Danube,0.0
244,Grdelica,Danube,Juzna Morava,1020,RS,3782.0,3763.54,42.890972,22.061887,22.075,42.925,NRT,calibrated,01/11/2008 00:00',01/01/2024 00:00',01/11/2008 00:00',0.692906,0.0306165,KGEJSD,Europe,Danube,0.0
245,Korvingrad,Danube,Juzna Morava,1020,RS,9396.0,9309.73,43.219521,21.838303,21.825,43.225,NRT,calibrated,01/11/2008 00:00',01/01/2024 00:00',01/11/2008 00:00',0.801984,0.0359386,KGEJSD,Europe,Danube,0.0
246,Mojsinje,Danube,Juzna Morava,1020,RS,15390.0,15535.94,43.63055,21.485787,21.525,43.625,NRT,calibrated,01/11/2008 00:00',01/01/2024 00:00',01/11/2008 00:00',0.806026,0.0462962,KGEJSD,Europe,Danube,0.0
247,Doljevac,Danube,Toplica,1020,RS,2052.0,2055.29,43.20241,21.830671,21.825,43.175,NRT,calibrated,01/11/2008 00:00',01/01/2024 00:00',01/11/2008 00:00',0.731199,0.0727495,KGEJSD,Europe,Danube,0.0
248,Pirot,Danube,Nisava,1020,RS,1745.0,1813.68,43.159234,22.588755,22.625,43.125,NRT,calibrated,01/11/2008 00:00',01/01/2024 00:00',01/11/2008 00:00',0.604005,0.0425996,KGEJSD,Europe,Danube,0.0
249,Nis,Danube,Nisava,1020,RS,3870.0,4025.15,43.326211,21.90196,21.975,43.325,NRT,calibrated,01/11/2008 00:00',01/01/2024 00:00',01/11/2008 00:00',0.79147,0.058068,KGEJSD,Europe,Danube,0.0
257,Lopatnica lakat,Danube,Ibar,1020,RS,7818.0,7946.5,43.659922,20.563451,20.575,43.675,NRT,calibrated,04/12/2009 00:00',22/09/2023 00:00',04/12/2009 00:00',0.801498,0.0136231,KGEJSD,Europe,Danube,0.0
261,Bogojevo,Danube,Danube,1020,RS,251593.0,252057.76,45.53004,19.078749,19.075,45.525,HIST,calibrated,01/01/1980 00:00',01/01/2024 00:00',13/07/2000 00:00',0.815774,0.0149512,KGEJSD,Europe,Danube,0.017957533760639792
263,Markovicevo,Danube,Brzava,1020,RS,1111.0,1132.13,45.326954,21.03038,21.075,45.325,NRT,calibrated,01/11/2008 00:00',01/01/2024 00:00',01/11/2008 00:00',0.712209,0.0778167,KGEJSD,Europe,Danube,0.0
264,Ljubicevski most,Danube,Velika Morava,1020,RS,37320.0,37456.86,44.585387,21.131837,21.125,44.575,NRT,calibrated,02/11/2008 00:00',01/01/2024 00:00',02/11/2008 00:00',0.831398,0.0719783,KGEJSD,Europe,Danube,0.0
267,Lot,Scheldt,Zenne,1022,BE,659.24,708.39,50.765746,4.279647,4.275,50.775,HIST,calibrated,02/01/1985 00:00',02/04/2009 00:00',13/03/1989 00:00',0.783861,0.0798232,KGEJSD,Europe,RhineMaasScheldtSeine,0.0
270,Menen,Scheldt,Leie,1022,BE,2986.2,2914.18,50.791197,3.126709,3.125,50.775,NRT,calibrated,31/10/2008 00:00',21/06/2022 00:00',31/10/2008 00:00',0.75198,0.0404098,KGEJSD,Europe,RhineMaasScheldtSeine,0.0
272,Moravský Sv. Ján,Danube,Great Morava,1018,SK,24129.3,24093.88,48.602278,16.935429,16.925,48.625,HIST,calibrated,01/01/1980 00:00',01/01/2024 00:00',12/11/1997 00:00',0.826328,0.0102376,KGEJSD,Europe,Danube,0.0
273,Devín,Danube,Danube,1018,SK,131244.0,130613.38,48.173299,16.977317,16.975,48.175,HIST,calibrated,02/01/2002 00:00',01/01/2024 00:00',02/01/2002 00:00',0.903454,0.0288784,KGEJSD,Europe,Danube,0.026240432115896467
274,Liptovský Mikuláš,Danube,Vakh,1018,SK,1107.21,1158.54,49.086364,19.603513,19.625,49.075,HIST,calibrated,01/01/1980 00:00',01/01/2024 00:00',11/09/1998 00:00',0.789517,0.0346655,KGEJSD,Europe,Danube,0.0
277,Strečno,Danube,Vakh,1018,SK,5453.25,5436.19,49.172511,18.864047,18.875,49.125,HIST,calibrated,02/11/1996 00:00',01/01/2024 00:00',21/09/1998 00:00',0.45916,0.0486231,KGEJSD,Europe,Danube,0.0
278,Šaľa,Danube,Vakh,1018,SK,11217.61,10719.11,48.161217,17.881949,17.825,48.175,HIST,calibrated,01/01/1980 00:00',01/01/2024 00:00',11/09/1998 00:00',0.76328,0.0258804,KGEJSD,Europe,Danube,0.0
279,Nitrianska Streda,Danube,Nitra,1018,SK,2093.71,2229.76,48.523948,18.172555,18.175,48.525,HIST,calibrated,01/01/1980 00:00',01/01/2024 00:00',22/09/1998 00:00',0.775278,0.0105532,KGEJSD,Europe,Danube,0.0
281,Komárno,Danube,Danube,1018,SK,151961.6,151454.0,47.754313,18.127812,18.075,47.775,HIST,calibrated,02/11/1995 00:00',01/01/2024 00:00',10/04/1998 00:00',0.878631,0.0167842,KGEJSD,Europe,Danube,0.02262966283958764
282,Banská Bystrica,Danube,Hron,1018,SK,1766.48,1838.09,48.731088,19.140372,19.125,48.725,HIST,calibrated,01/01/1980 00:00',01/01/2024 00:00',29/10/1997 00:00',0.802632,0.0111366,KGEJSD,Europe,Danube,0.0
283,Brehy,Danube,Hron,1018,SK,3821.38,3848.51,48.406726,18.64624,18.675,48.425,HIST,calibrated,01/01/1980 00:00',01/01/2024 00:00',31/10/1997 00:00',0.790133,0.0561774,KGEJSD,Europe,Danube,0.0
284,Slovenské Ďarmoty,Danube,Ipel,1018,SK,2768.0,2724.15,48.087161,19.297626,19.325,48.075,HIST,calibrated,01/01/1980 00:00',01/01/2024 00:00',08/11/1997 00:00',0.753611,0.0598222,KGEJSD,Europe,Danube,0.0
285,Lenártovce,Danube,Slana,1018,SK,1829.65,1905.98,48.30507,20.313416,20.325,48.325,HIST,calibrated,01/01/1980 00:00',01/01/2024 00:00',11/11/1997 00:00',0.721766,0.0268952,KGEJSD,Europe,Danube,0.0
286,Vlkyňa,Danube,Rimava,1018,SK,1377.41,1398.29,48.285404,20.301721,20.275,48.325,HIST,calibrated,01/01/1980 00:00',01/01/2024 00:00',09/11/1997 00:00',0.761104,0.0285894,KGEJSD,Europe,Danube,0.0
288,Margecany,Danube,Hornád,1018,SK,1132.78,1078.98,48.909548,20.972338,20.975,48.925,HIST,calibrated,01/01/1980 00:00',01/01/2024 00:00',08/11/1997 00:00',0.767999,0.0240777,KGEJSD,Europe,Danube,0.0
289,Košické Olšany,Danube,Torysa,1018,SK,1298.3,1279.91,48.733426,21.336383,21.325,48.725,HIST,calibrated,01/01/1980 00:00',01/01/2024 00:00',11/11/1997 00:00',0.757012,0.0220996,KGEJSD,Europe,Danube,0.0
290,Humenné,Danube,Laborec,1018,SK,1272.4,1360.6,48.928054,21.912382,21.925,48.925,HIST,calibrated,01/01/1980 00:00',01/01/2024 00:00',09/11/1997 00:00',0.803763,0.0350103,KGEJSD,Europe,Danube,0.0
293,Hanušovce nad Toplou,Danube,Topla,1018,SK,1050.05,1154.11,49.032598,21.519206,21.525,49.025,HIST,calibrated,01/01/1980 00:00',01/01/2024 00:00',11/11/1997 00:00',0.775407,0.0305052,KGEJSD,Europe,Danube,0.0
295,Akslen,Glomma,Bovri,1002,NO,796.26,811.77,61.802936,8.44987,8.425,61.775,NRT,calibrated,26/07/2008 00:00',01/01/2024 00:00',26/07/2008 00:00',0.733322,0.0270268,KGEJSD,Europe,SwedenNorway,0.6006023614997384
296,Atnasjoe,Glomma,Atna,1002,NO,463.2,526.63,61.851939,10.222119,10.175,61.875,NRT,calibrated,26/07/2008 00:00',01/01/2024 00:00',26/07/2008 00:00',0.843358,0.016647,KGEJSD,Europe,SwedenNorway,0.0
298,Bergheim,Drammen,Hallingdalselva,1002,NO,4248.54,4232.94,60.471919,9.231315,9.275,60.425,NRT,calibrated,11/02/2008 00:00',01/01/2024 00:00',11/02/2008 00:00',0.589074,0.0963282,KGEJSD,Europe,SwedenNorway,0.06489017848022961
301,Eide,Glomma,Lagen,1002,NO,7969.43,7788.69,61.613981,9.722482,9.725,61.625,NRT,calibrated,11/02/2008 00:00',16/10/2013 00:00',11/02/2008 00:00',0.77688,0.0742468,KGEJSD,Europe,SwedenNorway,0.24173780699754224
302,Elverum,Glomma,Glomma,1002,NO,15447.49,15600.61,60.874212,11.560652,11.525,60.925,NRT,calibrated,11/02/2008 00:00',01/01/2024 00:00',11/02/2008 00:00',0.713375,0.0974093,KGEJSD,Europe,SwedenNorway,0.0
303,Etna,Drammen,Etna,1002,NO,570.17,571.33,60.951902,9.626174,9.625,60.925,NRT,calibrated,26/07/2008 00:00',01/01/2024 00:00',26/07/2008 00:00',0.881047,0.0205587,KGEJSD,Europe,SwedenNorway,0.0
309,Knappom,Glomma,Flisa,1002,NO,1646.0,1728.17,60.64117,12.047125,12.125,60.675,NRT,calibrated,11/02/2008 00:00',28/12/2023 00:00',11/02/2008 00:00',0.821184,0.0351314,KGEJSD,Europe,SwedenNorway,0.0
310,Lalm,Glomma,Otta,1002,NO,3982.36,3989.07,61.817372,9.274604,9.225,61.825,NRT,calibrated,11/02/2008 00:00',01/01/2024 00:00',11/02/2008 00:00',0.846955,0.0504455,KGEJSD,Europe,SwedenNorway,0.3535269156236618
311,Losna,Glomma,Lagen,1002,NO,11212.94,11186.86,61.333385,10.277532,10.275,61.325,NRT,calibrated,11/02/2008 00:00',01/01/2024 00:00',11/02/2008 00:00',0.867244,0.0537195,KGEJSD,Europe,SwedenNorway,0.17895660639870492
312,Mjøndalen bru,Drammen,Drammen,1002,NO,16992.02,17000.22,59.752922,10.007267,10.025,59.775,HIST,calibrated,01/01/2020 00:00',31/12/2023 00:00',01/01/2020 00:00',0.801279,0.0832062,KGEJSD,Europe,SwedenNorway,0.016157232963599655
315,Nye Stai,Glomma,Glomma,1002,NO,8950.0,9029.04,61.466519,11.042726,11.075,61.525,NRT,calibrated,11/02/2008 00:00',18/10/2013 00:00',11/02/2008 00:00',0.84111,0.0425721,KGEJSD,Europe,SwedenNorway,0.0
316,Ofossen,Glomma,Otta,1002,NO,1584.73,1564.71,61.882597,8.313763,8.275,61.875,NRT,calibrated,11/02/2008 00:00',15/10/2013 00:00',11/02/2008 00:00',0.787464,0.090674,KGEJSD,Europe,SwedenNorway,0.43934271556998983
317,Rosten,Glomma,Lagen,1002,NO,1833.91,1732.34,61.858567,9.405153,9.425,61.825,NRT,calibrated,28/12/2009 00:00',14/09/2023 00:00',28/12/2009 00:00',0.822966,0.0327694,KGEJSD,Europe,SwedenNorway,0.0417162599321002
320,Skarnes,Glomma,Glomma,1002,NO,20296.2,20572.4,60.254316,11.67747,11.675,60.275,NRT,calibrated,11/02/2008 00:00',03/10/2013 00:00',11/02/2008 00:00',0.761029,0.0447388,KGEJSD,Europe,SwedenNorway,0.0
323,Strømstøa,Drammen,Adalselva,1002,NO,4631.48,4732.85,60.314604,10.138882,10.075,60.325,NRT,calibrated,11/02/2008 00:00',01/01/2024 00:00',11/02/2008 00:00',0.825145,0.0900213,KGEJSD,Europe,SwedenNorway,0.0
327,Veliko Selo,Danube,Mlava,1020,RS,1124.0,1153.22,44.49455,21.299877,21.325,44.475,NRT,calibrated,01/11/2008 00:00',03/08/2023 00:00',01/11/2008 00:00',0.687715,0.0687288,KGEJSD,Europe,Danube,0.0
328,Monte Da Vinha,Guadiana,Guadiana,1023,PT,49865.0,49901.83,38.8321,-7.085033,-7.125,38.825,efas,calibrated,01/01/1992 00:00',01/01/2024 00:00',22/10/2001 00:00',0.356758,0.12536,KGEJSD,Europe,SpainPortugal,0.0
330,Almourol,Tagus,Tagus,1023,PT,67482.0,67045.49,39.461,-8.375,-8.425,39.475,efas,calibrated,01/01/1990 00:00',01/01/2024 00:00',06/05/2001 00:00',0.778987,0.0790262,KGEJSD,Europe,SpainPortugal,0.0
332,Martina,Danube,Inn,1003,CH,1945.0,1893.96,46.885786,10.465434,10.475,46.875,NRT,calibrated,19/08/2011 00:00',01/01/2024 00:00',19/08/2011 00:00',0.777323,0.0920865,KGEJSD,Europe,Danube,0.4048473179931924
334,Bellinzona,Po,Ticino,1003,CH,1515.0,1517.63,46.20877,9.03202,8.975,46.175,NRT,calibrated,19/08/2011 00:00',01/01/2024 00:00',19/08/2011 00:00',0.827046,0.0279456,KGEJSD,Europe,PoAdigeReno,0.09837586253437218
335,Bern. Schönau,Rhine,Aare,1003,CH,2945.0,3021.71,46.933093,7.447957,7.475,46.925,NRT,calibrated,19/08/2011 00:00',01/01/2024 00:00',19/08/2011 00:00',0.85838,0.0104102,KGEJSD,Europe,RhineMaasScheldtSeine,0.2538687740093824
336,Brügg. Aegerten,Rhine,Aare,1003,CH,8293.0,8305.66,47.122066,7.283394,7.325,47.125,NRT,calibrated,19/08/2011 00:00',01/01/2024 00:00',19/08/2011 00:00',0.742915,0.028732,KGEJSD,Europe,RhineMaasScheldtSeine,0.0949350057768659
337,Brugg,Rhine,Aare,1003,CH,11726.0,11467.38,47.482538,8.194892,8.175,47.475,NRT,calibrated,19/08/2011 00:00',01/01/2024 00:00',19/08/2011 00:00',0.865032,0.0288932,KGEJSD,Europe,RhineMaasScheldtSeine,0.06876012181678941
338,Murgenthal,Rhine,Aare,1003,CH,10119.0,9973.9,47.266591,7.830621,7.825,47.275,NRT,calibrated,19/08/2011 00:00',01/01/2024 00:00',19/08/2011 00:00',0.837152,0.031861,KGEJSD,Europe,RhineMaasScheldtSeine,0.0790559133400004
345,Fürstenau,Rhine,Hinterrhein,1003,CH,1575.0,1639.7,46.715082,9.447353,9.425,46.725,NRT,calibrated,19/08/2011 00:00',01/01/2024 00:00',19/08/2011 00:00',0.594289,0.0467201,KGEJSD,Europe,RhineMaasScheldtSeine,0.3120622334094575
348,Zuerich.Unterhard,Rhine,Limmat,1003,CH,2176.0,2215.57,47.390585,8.525453,8.525,47.375,NRT,calibrated,19/08/2011 00:00',01/01/2024 00:00',19/08/2011 00:00',0.84114,0.0532127,KGEJSD,Europe,RhineMaasScheldtSeine,0.1528799163365609
349,Weesen. Biäsche,Rhine,Linth,1003,CH,1061.0,1141.35,47.131563,9.088424,9.075,47.125,HIST,calibrated,01/01/1980 00:00',01/01/2021 00:00',16/09/1999 00:00',0.859442,0.0113996,KGEJSD,Europe,RhineMaasScheldtSeine,0.29676650189161297
350,Luzern. Geissmattbrücke,Rhine,Reuss,1003,CH,2251.0,2246.71,47.054009,8.298489,8.325,47.075,NRT,calibrated,19/08/2011 00:00',01/01/2024 00:00',19/08/2011 00:00',0.853523,0.0241594,KGEJSD,Europe,RhineMaasScheldtSeine,0.2931051865407376
351,Mellingen,Rhine,Reuss,1003,CH,3382.0,3449.22,47.42103,8.271283,8.275,47.425,NRT,calibrated,19/08/2011 00:00',01/01/2024 00:00',19/08/2011 00:00',0.883109,0.011412,KGEJSD,Europe,RhineMaasScheldtSeine,0.1909193806485927
353,Basel. Rheinhalle,Rhine,Rhine,1003,CH,35897.0,36374.73,47.559432,7.61667,7.625,47.575,NRT,calibrated,19/08/2011 00:00',01/01/2024 00:00',19/08/2011 00:00',0.93455,0.0115908,KGEJSD,Europe,RhineMaasScheldtSeine,0.08415515855923918
355,Domat/Ems,Rhine,Rhine,1003,CH,3229.0,3318.62,46.837667,9.456125,9.425,46.825,NRT,calibrated,19/08/2011 00:00',01/01/2024 00:00',19/08/2011 00:00',0.823749,0.0481622,KGEJSD,Europe,RhineMaasScheldtSeine,0.2951387750069455
356,Neuhausen. Flurlingerbrücke,Rhine,Rhine,1003,CH,11887.0,11978.35,47.682331,8.625871,8.625,47.675,HIST,calibrated,01/01/1980 00:00',01/01/2021 00:00',15/09/2000 00:00',0.843465,0.0167226,KGEJSD,Europe,RhineMaasScheldtSeine,0.10471843802370036
357,Rekingen,Rhine,Rhine,1003,CH,14718.0,15038.98,47.570622,8.329848,8.325,47.575,NRT,calibrated,19/08/2011 00:00',01/01/2024 00:00',19/08/2011 00:00',0.900342,0.0162824,KGEJSD,Europe,RhineMaasScheldtSeine,0.0848052200916609
358,Rheinfelden (Messstation),Rhine,Rhine,1003,CH,34526.0,34530.27,47.560715,7.799905,7.775,47.575,NRT,calibrated,15/01/2009 00:00',01/01/2024 00:00',15/01/2009 00:00',0.932557,0.0130685,KGEJSD,Europe,RhineMaasScheldtSeine,0.08865039341837676
361,Andelfingen,Rhine,Thur,1003,CH,1696.0,1782.78,47.596521,8.681994,8.675,47.625,NRT,calibrated,19/08/2011 00:00',01/01/2024 00:00',19/08/2011 00:00',0.826578,0.0273841,KGEJSD,Europe,RhineMaasScheldtSeine,0.011796374889086239
366,Geneve. Bout Du Monde,Rhone,Arve,1003,CH,1976.0,2022.23,46.180286,6.159361,6.175,46.175,NRT,calibrated,19/08/2011 00:00',01/01/2024 00:00',19/08/2011 00:00',0.855563,0.0231673,KGEJSD,Europe,LoireGirondeRhoneFranceCoast,0.21325738092966343
371,Porte du Scex,Rhone,Rhône,1003,CH,5244.0,5254.06,46.349566,6.88861,6.925,46.325,NRT,calibrated,19/08/2011 00:00',01/01/2024 00:00',19/08/2011 00:00',0.664404,0.0669796,KGEJSD,Europe,LoireGirondeRhoneFranceCoast,0.5103063889951475
372,Sion,Rhone,Rhône,1003,CH,3373.0,3256.99,46.21909,7.3579,7.375,46.225,NRT,calibrated,19/08/2011 00:00',01/01/2024 00:00',19/08/2011 00:00',0.869076,0.0240285,KGEJSD,Europe,LoireGirondeRhoneFranceCoast,0.5790229106121857
380,Borgotaro,Po,Taro,1016,IT,,442.15,44.514057,9.84219,9.825,44.525,NRT,calibrated,09/05/2012 00:00',08/11/2017 00:00',09/05/2012 00:00',0.787059,0.0355981,KGEJSD,Europe,PoAdigeReno,0.0
396,Bomporto,Po,Panaro,1016,IT,,1151.37,44.727163,11.045084,11.075,44.725,HIST,calibrated,03/02/1993 00:00',01/01/2023 00:00',03/02/1993 00:00',0.752478,0.0532547,KGEJSD,Europe,PoAdigeReno,0.0
398,Piacenza,Po,Po,1016,IT,42030.0,41840.86,45.060519,9.705535,9.775,45.125,HIST,calibrated,09/05/2012 00:00',01/01/2024 00:00',09/05/2012 00:00',0.895153,0.0157244,KGEJSD,Europe,PoAdigeReno,0.054283185509753196
399,Cremona,Po,Po,1016,IT,,51036.28,45.128596,9.995033,10.025,45.125,efas,calibrated,02/01/1990 00:00',01/01/2024 00:00',24/05/1991 00:00',0.883227,0.0316128,KGEJSD,Europe,PoAdigeReno,0.0684050921067107
410,Pioppa,Po,Secchia,1016,IT,,1437.66,44.856755,10.964897,11.025,44.875,NRT,calibrated,09/05/2012 00:00',08/11/2017 00:00',09/05/2012 00:00',0.821339,0.0358505,KGEJSD,Europe,PoAdigeReno,0.0
428,San Secondo,Po,Taro,1016,IT,,1521.97,44.916891,10.254303,10.275,44.925,NRT,calibrated,12/06/2012 00:00',08/11/2017 00:00',12/06/2012 00:00',0.617816,0.101009,KGE,Europe,PoAdigeReno,0.0
454,Parma Ponte Verdi,Po,Parma,1016,IT,,750.08,44.805476,10.324681,10.325,44.825,NRT,calibrated,09/05/2012 00:00',08/11/2017 00:00',09/05/2012 00:00',0.733502,0.0730946,KGEJSD,Europe,PoAdigeReno,0.0
457,Ampermoching,Danube,Amper,1025,DE,2188.55,2346.33,48.297,11.4916,11.475,48.275,NRT,calibrated,14/01/2013 00:00',01/01/2024 00:00',14/01/2013 00:00',0.827557,0.021794,KGEJSD,Europe,Danube,0.0
458,Augsburg Oberhausen,Danube,Wertach,1025,DE,1256.9,1288.64,48.378353,10.881891,10.875,48.325,efas,calibrated,24/02/1999 00:00',24/12/2023 00:00',24/02/1999 00:00',0.865082,0.0226561,KGEJSD,Europe,Danube,0.0
460,Beilngries oberh. der Sulz,Danube,Altmuhl,1025,DE,2251.2,2214.5,49.0285,11.4783,11.425,48.975,NRT,calibrated,14/01/2013 00:00',01/01/2024 00:00',14/01/2013 00:00',0.662747,0.0820226,KGEJSD,Europe,Danube,0.0
461,Burghausen,Danube,Salzach,1025,DE,6649.0,6639.29,48.1585,12.8341,12.825,48.175,HIST,calibrated,01/01/1980 00:00',31/12/2021 00:00',26/12/1991 00:00',0.887862,0.0253694,KGEJSD,Europe,Danube,0.09200960304988375
462,Chamerau,Danube,Regen,1025,DE,1356.53,1401.98,49.181157,12.746633,12.775,49.175,NRT,calibrated,03/06/2013 00:00',01/01/2024 00:00',03/06/2013 00:00',0.809933,0.0513789,KGEJSD,Europe,Danube,0.0
463,Dillingen,Danube,Danube,1025,DE,11349.87,11584.54,48.5684,10.5005,10.475,48.575,NRT,calibrated,14/01/2013 00:00',01/01/2024 00:00',14/01/2013 00:00',0.889148,0.0117405,KGEJSD,Europe,Danube,0.0
465,Eichstätt,Danube,Altmuhl,1025,DE,1396.81,1401.24,48.883072,11.200333,11.175,48.875,NRT,calibrated,03/06/2013 00:00',01/01/2024 00:00',03/06/2013 00:00',0.771257,0.0597645,KGEJSD,Europe,Danube,0.0
467,Harburg,Danube,Wornitz,1025,DE,1568.62,1566.46,48.783017,10.692216,10.625,48.825,NRT,calibrated,03/06/2013 00:00',01/01/2024 00:00',03/06/2013 00:00',0.71513,0.0544954,KGEJSD,Europe,Danube,0.0
468,Hüttendorf,Rhine,Regnitz,1025,DE,3864.37,3875.08,49.5461,10.9736,10.975,49.525,NRT,calibrated,14/01/2013 00:00',01/01/2024 00:00',14/01/2013 00:00',0.782218,0.0747305,KGEJSD,Europe,RhineMaasScheldtSeine,0.0
469,Ingolstadt Luitpoldstraße,Danube,Danube,1025,DE,20001.0,20296.79,48.7574,11.426,11.375,48.725,NRT,calibrated,14/01/2013 00:00',01/01/2024 00:00',14/01/2013 00:00',0.871547,0.0113018,KGEJSD,Europe,Danube,0.0031122859693213565
471,Kelheim,Danube,Danube,1025,DE,23019.24,22819.1,48.9166,11.8643,11.825,48.875,NRT,calibrated,14/01/2013 00:00',01/01/2024 00:00',14/01/2013 00:00',0.88074,0.0101929,KGEJSD,Europe,Danube,0.0027682689659229696
472,Kemmern,Rhine,Main,1025,DE,4223.84,4211.09,49.951,10.8741,10.875,49.975,NRT,calibrated,14/01/2013 00:00',01/01/2024 00:00',14/01/2013 00:00',0.834375,0.0386726,KGEJSD,Europe,RhineMaasScheldtSeine,0.0
474,Landau,Danube,Isar,1025,DE,8391.54,8796.99,48.675294,12.692566,12.675,48.675,NRT,calibrated,03/06/2013 00:00',01/01/2024 00:00',03/06/2013 00:00',0.81968,0.0527245,KGEJSD,Europe,Danube,0.00477009351406172
476,Mainleus,Rhine,Main,1025,DE,1165.55,1175.45,50.099504,11.373051,11.375,50.075,HIST,calibrated,02/11/1982 00:00',31/12/2021 00:00',27/12/1991 00:00',0.819875,0.0149459,KGEJSD,Europe,RhineMaasScheldtSeine,0.0
477,Münchshofen,Danube,Naab,1025,DE,4007.77,4018.93,49.234,12.084,12.075,49.275,NRT,calibrated,14/01/2013 00:00',01/01/2024 00:00',14/01/2013 00:00',0.860051,0.0153297,KGEJSD,Europe,Danube,0.0
480,Nürnberg,Rhine,Pegnitz,1025,DE,1197.58,1267.3,49.45582,11.052531,11.075,49.475,NRT,calibrated,03/06/2013 00:00',01/01/2024 00:00',03/06/2013 00:00',0.807912,0.0178556,KGEJSD,Europe,RhineMaasScheldtSeine,0.0
486,Schwürbitz,Rhine,Main,1025,DE,2418.68,2444.03,50.165,11.1512,11.175,50.175,NRT,calibrated,14/01/2013 00:00',01/01/2024 00:00',14/01/2013 00:00',0.834947,0.0258617,KGEJSD,Europe,RhineMaasScheldtSeine,0.0
487,Seebruck,Danube,Alz,1025,DE,1399.32,1462.73,47.934545,12.480662,12.475,47.925,HIST,calibrated,01/01/1980 00:00',31/12/2021 00:00',26/12/1991 00:00',0.868099,0.036881,KGEJSD,Europe,Danube,0.0
488,Unterköblitz,Danube,Naab,1025,DE,2010.38,2023.65,49.5356,12.154,12.125,49.525,NRT,calibrated,14/01/2013 00:00',01/01/2024 00:00',14/01/2013 00:00',0.828473,0.0272115,KGEJSD,Europe,Danube,0.0
489,Wasserburg,Danube,Inn,1025,DE,11980.37,11894.53,48.0593,12.2343,12.225,48.075,NRT,calibrated,14/01/2013 00:00',01/01/2024 00:00',14/01/2013 00:00',0.91436,0.0122969,KGEJSD,Europe,Danube,0.22442583850900621
490,Wolfsmünster,Rhine,Franconian Saale,1025,DE,2120.89,2140.06,50.0877,9.7356,9.725,50.125,NRT,calibrated,14/01/2013 00:00',01/01/2024 00:00',14/01/2013 00:00',0.789899,0.0180259,KGEJSD,Europe,RhineMaasScheldtSeine,0.0
491,Tokarnia,Vistula,Czarna Nida,1024,PL,,1234.79,50.7742,20.4531,20.475,50.775,efas,calibrated,01/01/1990 00:00',01/11/2022 00:00',21/05/2002 00:00',0.669652,0.054427,KGEJSD,Europe,Vistula,0.0
492,ŻABNO,Vistula,Dunajec,1024,PL,6740.66,6627.72,50.131944,20.863611,20.875,50.125, ,calibrated,04/03/2018 00:00',01/01/2024 00:00',04/03/2018 00:00',0.751666,0.0442443,KGEJSD,Europe,Vistula,0.0
493,Pinczow,Vistula,Nida,1024,PL,,3337.9,50.5139,20.5208,20.525,50.525,efas,calibrated,01/01/1990 00:00',01/11/2022 00:00',09/07/2002 00:00',0.735542,0.00682757,KGEJSD,Europe,Vistula,0.0
494,Stary Sacz,Vistula,Poprad,1024,PL,,2003.48,49.5686,20.66,20.675,49.575,efas,calibrated,01/01/1990 00:00',01/11/2022 00:00',20/07/2002 00:00',0.778759,0.0274059,KGEJSD,Europe,Vistula,0.0
495,Proszowki,Vistula,Rába,1024,PL,1470.0,1522.16,49.9961,20.4336,20.425,49.975,efas,calibrated,01/01/1990 00:00',01/11/2022 00:00',14/04/2002 00:00',0.691471,0.0472424,KGEJSD,Europe,Vistula,0.0
496,JAROSŁAW,Vistula,San,1024,PL,7028.16,6950.38,50.021111,22.702778,22.675,50.075, ,calibrated,04/03/2018 00:00',01/01/2024 00:00',04/03/2018 00:00',0.818237,0.0313482,KGEJSD,Europe,Vistula,0.0
497,NISKO,Vistula,San,1024,PL,15578.39,15517.76,50.52,22.192778,22.175,50.525, ,calibrated,04/03/2018 00:00',01/01/2024 00:00',04/03/2018 00:00',0.85423,0.0345295,KGEJSD,Europe,Vistula,0.0
498,Zator,Vistula,Skawa,1024,PL,,1222.38,49.9992,19.4456,19.425,49.975,efas,calibrated,01/01/1990 00:00',01/11/2022 00:00',10/06/2001 00:00',0.793241,0.0331738,KGEJSD,Europe,Vistula,0.0
500,SMOLICE,Vistula,Vistula,1024,PL,6796.18,6782.19,50.031111,19.460278,19.425,50.025,efas,calibrated,01/01/1990 00:00',28/12/2023 00:00',16/10/2001 00:00',0.831168,0.0285704,KGEJSD,Europe,Vistula,0.0
502,SZCZUCIN,Vistula,Vistula,1024,PL,23876.38,24329.13,50.326944,21.077222,21.075,50.325, ,calibrated,09/03/2018 00:00',01/01/2024 00:00',09/03/2018 00:00',0.836594,0.0497595,KGEJSD,Europe,Vistula,0.0
503,SANDOMIERZ,Vistula,Vistula,1024,PL,31809.9,31844.14,50.6725,21.746111,21.725,50.675, ,calibrated,04/03/2018 00:00',01/01/2024 00:00',04/03/2018 00:00',0.833287,0.0479739,KGEJSD,Europe,Vistula,0.0
504,ZAWICHOST,Vistula,Vistula,1024,PL,50654.57,50496.44,50.805833,21.862778,21.825,50.825, ,calibrated,07/03/2018 00:00',01/01/2024 00:00',07/03/2018 00:00',0.860704,0.0408773,KGEJSD,Europe,Vistula,0.0
505,Rzeszow,Vistula,Wislok,1024,PL,,2123.55,50.0397,22.0156,22.025,50.025,efas,calibrated,01/01/1990 00:00',01/11/2022 00:00',20/07/2002 00:00',0.781987,0.0271965,KGEJSD,Europe,Vistula,0.0
506,MIELEC 2,Vistula,WISLOKA,1024,PL,3891.69,4043.35,50.278889,21.430556,21.425,50.275, ,calibrated,04/03/2018 00:00',01/01/2024 00:00',04/03/2018 00:00',0.796352,0.0427716,KGEJSD,Europe,Vistula,0.0
507,Kunow,Vistula,Kamienna,1024,PL,,1229.55,50.9619,21.2789,21.275,50.975,efas,calibrated,01/01/1990 00:00',01/11/2022 00:00',10/05/1996 00:00',0.705651,0.0773406,KGEJSD,Europe,Vistula,0.0
508,Lochow,Vistula,Liwiec,1024,PL,2462.0,2546.27,52.51,21.6783,21.725,52.475,efas,calibrated,01/01/1990 00:00',01/11/2022 00:00',20/07/2002 00:00',0.654188,0.0230115,KGEJSD,Europe,Vistula,0.0
509,SULEJÓW (KOPALNIA),Vistula,Pilica,1024,PL,3927.69,3892.1,51.34361,19.88611,19.875,51.325, ,calibrated,04/03/2018 00:00',01/01/2024 00:00',04/03/2018 00:00',0.68848,0.0391855,KGEJSD,Europe,Vistula,0.0
510,KOŚMIN,Vistula,Wieprz,1024,PL,10292.67,10160.79,51.573056,22.001389,21.975,51.575, ,calibrated,04/03/2018 00:00',01/01/2024 00:00',04/03/2018 00:00',0.781579,0.0441737,KGEJSD,Europe,Vistula,0.0
511,BORKOWO,Vistula,Wkra,1024,PL,5133.19,5127.47,52.561667,20.665556,20.675,52.575, ,calibrated,04/03/2018 00:00',01/01/2024 00:00',04/03/2018 00:00',0.683348,0.0182995,KGEJSD,Europe,Vistula,0.0
512,BURZYN,Vistula,Biebrza,1024,PL,6928.92,7015.65,53.273889,22.459444,22.475,53.275, ,calibrated,04/03/2018 00:00',01/01/2024 00:00',04/03/2018 00:00',0.793542,0.0403165,KGEJSD,Europe,Vistula,0.0
513,Prosna,Pregolya,Guber,1024,PL,,1001.98,54.2336,21.086667,21.125,54.225,efas,calibrated,01/01/1990 00:00',01/11/2022 00:00',20/07/2002 00:00',0.612168,0.038245,KGEJSD,Europe,DenmarkFinlandDaugavaNeris,0.0
514,Sepopol,Pregolya,Lyna,1024,PL,,3675.34,54.2664,21.005278,20.975,54.275,efas,calibrated,01/01/1990 00:00',01/11/2022 00:00',20/07/2002 00:00',0.678967,0.0162844,KGEJSD,Europe,DenmarkFinlandDaugavaNeris,0.0
516,PIĄTNICA-ŁOMŻA,Vistula,Narew,1024,PL,15347.46,15378.1,53.193333,22.093333,22.075,53.175, ,calibrated,04/03/2018 00:00',01/01/2024 00:00',04/03/2018 00:00',0.754749,0.0256251,KGEJSD,Europe,Vistula,0.0
517,ZAMBSKI KOŚCIELNE,Vistula,Narew,1024,PL,27807.5,28425.93,52.756111,21.206111,21.225,52.775, ,calibrated,04/03/2018 00:00',01/01/2024 00:00',04/03/2018 00:00',0.713803,0.030591,KGEJSD,Europe,Vistula,0.0
518,Bialobrzeg Blizszy,Vistula,Omulew,1024,PL,,1904.7,53.1083,21.478889,21.475,53.125,efas,calibrated,01/01/1990 00:00',01/11/2022 00:00',20/07/2002 00:00',0.691577,0.0815546,KGEJSD,Europe,Vistula,0.0
519,Makow Mazowiecki,Vistula,Orzyc,1024,PL,,1973.54,52.8592,21.106944,21.125,52.825,efas,calibrated,01/01/1990 00:00',01/11/2022 00:00',20/07/2002 00:00',0.639038,0.00927745,KGEJSD,Europe,Vistula,0.0
520,DOBRYLAS,Vistula,Pisa,1024,PL,4082.38,4568.54,53.284722,21.866944,21.775,53.375, ,calibrated,04/03/2018 00:00',01/01/2024 00:00',04/03/2018 00:00',0.750645,0.0861171,KGEJSD,Europe,Vistula,0.0
521,Fasty,Vistula,Suprasl,1024,PL,,1858.63,53.1786,23.025833,23.025,53.175,efas,calibrated,01/01/1990 00:00',01/11/2022 00:00',20/07/2002 00:00',0.614051,0.037081,KGEJSD,Europe,Vistula,0.0
522,Mieduniszki,Pregolya,Angrapa,1024,PL,,961.0,54.3264,21.980278,21.975,54.375,efas,calibrated,01/01/1990 00:00',01/11/2022 00:00',20/07/2002 00:00',0.573906,0.030081,KGEJSD,Europe,DenmarkFinlandDaugavaNeris,0.0
524,Piatnica,Oder,Kaczawa,1024,PL,,1829.13,51.227778,16.198611,16.175,51.225,efas,calibrated,02/01/1997 00:00',01/11/2022 00:00',20/07/2001 00:00',0.758579,0.0106675,KGEJSD,Europe,ElbeOderEmsWeser,0.0
526,Olawa,Oder,Osława,1024,PL,,805.23,50.947778,17.292778,17.275,50.975,efas,calibrated,01/01/1990 00:00',01/11/2022 00:00',20/07/2002 00:00',0.746791,0.0181172,KGEJSD,Europe,ElbeOderEmsWeser,0.0
533,CIGACICE,Oder,Oder,1024,PL,39900.85,39590.13,52.033056,15.6075,15.625,52.025,HIST,calibrated,01/01/1980 00:00',01/11/2022 00:00',18/09/2001 00:00',0.765007,0.0220927,KGEJSD,Europe,ElbeOderEmsWeser,0.0
534,Bardo,Oder,Nysa Klodzka,1024,PL,,1877.77,50.503611,16.741111,16.725,50.525,efas,calibrated,02/01/2008 00:00',01/11/2022 00:00',02/01/2008 00:00',0.626588,0.0483403,KGEJSD,Europe,ElbeOderEmsWeser,0.0
535,OSETNO,Oder,Barycz,1024,PL,4579.55,4572.22,51.631667,16.4625,16.425,51.625, ,calibrated,04/03/2018 00:00',01/01/2024 00:00',04/03/2018 00:00',0.736568,0.019934,KGEJSD,Europe,ElbeOderEmsWeser,0.0
536,POŁĘCKO,Oder,Oder,1024,PL,47164.75,46957.46,52.052778,14.892222,14.875,52.075,efas,calibrated,01/01/1990 00:00',01/11/2022 00:00',17/07/2002 00:00',0.783623,0.0244617,KGEJSD,Europe,ElbeOderEmsWeser,0.0
537,Korzensko,Oder,Orla,1024,PL,,1230.56,51.539167,16.8725,16.875,51.525,efas,calibrated,01/01/1990 00:00',01/11/2022 00:00',20/07/2002 00:00',0.446057,0.0463991,KGEJSD,Europe,ElbeOderEmsWeser,0.0
538,RACIBÓRZ-MIEDONIA,Oder,Oder,1024,PL,6728.54,6880.44,50.122778,18.230833,18.225,50.125, ,calibrated,01/01/1980 00:00',01/11/2022 00:00',18/09/2001 00:00',0.803712,0.0139403,KGEJSD,Europe,ElbeOderEmsWeser,0.0
542,Jarnoltow,Oder,Bistrița,1024,PL,,1761.97,51.121944,16.842778,16.825,51.125,efas,calibrated,01/01/1990 00:00',01/11/2022 00:00',20/07/2002 00:00',0.613074,0.0352095,KGEJSD,Europe,ElbeOderEmsWeser,0.0
543,SŁUBICE,Oder,Oder,1024,PL,53511.26,53423.21,52.348333,14.556111,14.525,52.375,HIST,calibrated,01/01/1980 00:00',01/11/2022 00:00',18/09/2001 00:00',0.785818,0.0145973,KGEJSD,Europe,ElbeOderEmsWeser,0.0
544,GOZDOWICE,Oder,Oder,1024,PL,109795.07,109992.24,52.764167,14.317778,14.375,52.725,NRT,calibrated,04/03/2018 00:00',01/01/2024 00:00',04/03/2018 00:00',0.810451,0.0163347,KGEJSD,Europe,ElbeOderEmsWeser,0.0
545,DZIAŁOSZYN,Oder,Warta,1024,PL,4093.63,4092.95,51.11,18.873333,18.925,51.075, ,calibrated,04/03/2018 00:00',01/01/2024 00:00',04/03/2018 00:00',0.76159,0.0317517,KGEJSD,Europe,ElbeOderEmsWeser,0.0
547,SŁAWSK,Oder,Warta,1024,PL,13759.46,13762.17,52.198611,18.134722,18.125,52.175, ,calibrated,06/03/2018 00:00',01/01/2024 00:00',06/03/2018 00:00',0.62749,0.0736821,KGEJSD,Europe,ElbeOderEmsWeser,0.0
548,POZNAŃ (MOST ROCHA),Oder,Warta,1024,PL,25908.89,25703.14,52.398611,16.942778,16.975,52.425, ,calibrated,01/01/1980 00:00',01/11/2022 00:00',18/09/2001 00:00',0.686266,0.0251788,KGEJSD,Europe,ElbeOderEmsWeser,0.0
549,GORZÓW WIELKOPOLSKI,Oder,Warta,1024,PL,52362.12,52693.43,52.73,15.253056,15.275,52.725,HIST,calibrated,01/01/1980 00:00',01/11/2022 00:00',18/09/2001 00:00',0.734319,0.00931383,KGEJSD,Europe,ElbeOderEmsWeser,0.0
550,Dabie,Oder,Ner,1024,PL,,1744.61,52.085278,18.825278,18.825,52.075,efas,calibrated,01/01/1990 00:00',01/11/2022 00:00',20/07/2002 00:00',0.58825,0.0173136,KGEJSD,Europe,ElbeOderEmsWeser,0.0
552,BOGUSŁAW,Oder,Prosna,1024,PL,4282.38,4307.69,51.898889,17.954722,17.975,51.875, ,calibrated,01/01/1980 00:00',01/11/2022 00:00',18/09/2001 00:00',0.639269,0.0151118,KGEJSD,Europe,ElbeOderEmsWeser,0.0
553,PIŁA,Oder,Gwda,1024,PL,4712.57,4857.91,53.151389,16.740278,16.775,53.125,HIST,calibrated,01/01/1980 00:00',01/11/2022 00:00',18/09/2001 00:00',0.718894,0.0411791,KGEJSD,Europe,ElbeOderEmsWeser,0.0
554,Drawiny,Oder,Drava,1024,PL,,3119.1,52.885556,15.977778,15.975,52.925,efas,calibrated,01/01/1990 00:00',01/11/2022 00:00',20/07/2002 00:00',0.725205,0.0274928,KGEJSD,Europe,ElbeOderEmsWeser,0.0
555,Podgorze,Oder,Widawka,1024,PL,,2401.78,51.465,18.943333,18.925,51.475,efas,calibrated,01/01/1990 00:00',01/11/2022 00:00',20/07/2002 00:00',0.623163,0.0596723,KGEJSD,Europe,ElbeOderEmsWeser,0.0
556,Nemcice,Elbe,Labe,1019,CZ,4300.51,4438.02,50.09454,15.808156,15.825,50.125,HIST,calibrated,02/01/1991 00:00',01/01/2024 00:00',02/01/2004 00:00',0.631774,0.120304,KGE,Europe,ElbeOderEmsWeser,0.0
557,Prelouc,Elbe,Labe,1019,CZ,6435.02,6534.96,50.044538,15.573471,15.575,50.025,HIST,calibrated,02/01/1991 00:00',01/01/2024 00:00',02/01/2004 00:00',0.777739,0.016878,KGEJSD,Europe,ElbeOderEmsWeser,0.0
559,Ceske Budejovice,Elbe,Vltava,1019,CZ,2849.82,2880.25,48.980737,14.463986,14.475,48.975,HIST,calibrated,02/01/1991 00:00',01/01/2024 00:00',02/01/2004 00:00',0.678549,0.0339417,KGEJSD,Europe,ElbeOderEmsWeser,0.0
560,Bechyne,Elbe,Luznice,1019,CZ,4055.13,4200.32,49.288757,14.471184,14.475,49.275,HIST,calibrated,02/01/1991 00:00',01/01/2024 00:00',02/01/2004 00:00',0.751024,0.0329717,KGEJSD,Europe,ElbeOderEmsWeser,0.0
561,Pisek,Elbe,Otava,1019,CZ,2913.93,2878.65,49.31291,14.145395,14.175,49.325,HIST,calibrated,01/01/1980 00:00',01/01/2024 00:00',02/01/2004 00:00',0.772472,0.0415666,KGEJSD,Europe,ElbeOderEmsWeser,0.0
562,Nespeky,Elbe,Sazava,1019,CZ,4038.25,4157.61,49.859529,14.650837,14.675,49.875,HIST,calibrated,01/11/1993 00:00',01/01/2024 00:00',02/01/2004 00:00',0.792011,0.0230675,KGEJSD,Europe,ElbeOderEmsWeser,0.0
564,Beroun,Elbe,Litavka,1019,CZ,628.96,600.45,49.958,14.075,14.025,49.925,HIST,calibrated,01/01/1980 00:00',01/01/2024 00:00',02/01/2004 00:00',0.116904,0.429073,KGEJSD,Europe,ElbeOderEmsWeser,0.0
567,Karlovy Vary,Elbe,Ohre,1019,CZ,2861.17,2843.51,50.237485,12.883837,12.925,50.225,HIST,calibrated,02/01/1991 00:00',01/01/2024 00:00',02/01/2004 00:00',0.829762,0.0239257,KGEJSD,Europe,ElbeOderEmsWeser,0.0
568,Louny I.,Elbe,Ohre,1019,CZ,4962.3,4943.02,50.357499,13.804808,13.825,50.375,HIST,calibrated,02/01/1991 00:00',01/01/2024 00:00',02/01/2004 00:00',0.707157,0.119656,KGE,Europe,ElbeOderEmsWeser,0.0
569,Usti nad Labem,Elbe,Labe,1019,CZ,48540.85,48558.35,50.653028,14.042806,14.075,50.625,HIST,calibrated,02/01/1991 00:00',01/01/2024 00:00',02/01/2004 00:00',0.805063,0.00403973,KGEJSD,Europe,ElbeOderEmsWeser,0.0
570,Svinov,Oder,Oder,1019,CZ,1613.73,1605.54,49.819936,18.217288,18.225,49.775, ,calibrated,02/01/1991 00:00',01/01/2024 00:00',02/01/2004 00:00',0.779166,0.00721724,KGEJSD,Europe,ElbeOderEmsWeser,0.0
571,Dehylov,Oder,Opava,1019,CZ,2038.8,2113.89,49.878817,18.177844,18.175,49.875, ,calibrated,02/01/1991 00:00',01/01/2024 00:00',02/01/2004 00:00',0.78698,0.00976559,KGEJSD,Europe,ElbeOderEmsWeser,0.0
573,Vernovice,Oder,Olza,1019,CZ,1071.19,1121.69,49.930486,18.419473,18.425,49.925,HIST,calibrated,01/11/2004 00:00',01/01/2024 00:00',01/11/2004 00:00',0.820783,0.0289615,KGEJSD,Europe,ElbeOderEmsWeser,0.0
574,Olomouc,Danube,Great Morava,1019,CZ,3323.94,3300.21,49.576874,17.26133,17.275,49.575,HIST,calibrated,02/01/1991 00:00',01/01/2024 00:00',02/01/2004 00:00',0.805918,0.0213803,KGEJSD,Europe,Danube,0.0
576,Kromeriz,Danube,Great Morava,1019,CZ,7030.31,6971.66,49.301911,17.39939,17.375,49.325,HIST,calibrated,02/01/1991 00:00',01/01/2024 00:00',02/01/2004 00:00',0.846189,0.010875,KGEJSD,Europe,Danube,0.0
578,Travni Dvur,Danube,Thaya,1019,CZ,3531.36,3712.35,48.790548,16.437896,16.425,48.775,HIST,calibrated,02/01/1991 00:00',01/01/2024 00:00',02/01/2004 00:00',0.683112,0.0287561,KGEJSD,Europe,Danube,0.0
579,Zidlochovice,Danube,Svratka,1019,CZ,3940.0,4097.67,49.035525,16.616741,16.625,49.025,HIST,calibrated,02/01/1991 00:00',01/01/2024 00:00',02/01/2004 00:00',0.763935,0.0349433,KGEJSD,Europe,Danube,0.0
581,Breclav-Ladna,Danube,Thaya,1019,CZ,12279.97,12498.39,48.79945,16.858672,16.825,48.825,HIST,calibrated,02/01/1988 00:00',01/01/2024 00:00',02/01/2004 00:00',0.750614,0.0204983,KGEJSD,Europe,Danube,0.0
582,Miziya,Danube,Ogosta,1026,BG,3112.0,3128.08,43.6919,23.8258,23.825,43.675,efas,calibrated,01/01/1991 00:00',01/01/2024 00:00',02/03/2001 00:00',0.562413,0.0628359,KGEJSD,Europe,Danube,0.0
583,Novi Iskar,Danube,Iskar,1026,BG,3662.0,3532.74,42.8292,23.3598,23.375,42.825,efas,calibrated,02/05/2009 00:00',01/01/2024 00:00',02/05/2009 00:00',0.702196,0.0378136,KGEJSD,Europe,Danube,0.0
584,Orehovica,Danube,Iskar,1026,BG,8366.0,8346.91,43.5878,24.3589,24.375,43.575,efas,calibrated,01/01/1991 00:00',01/01/2024 00:00',04/01/2001 00:00',0.705935,0.0605435,KGEJSD,Europe,Danube,0.0
585,Tarnene,Danube,Vit,1026,BG,2236.0,2059.43,43.4056,24.5192,24.475,43.375,efas,calibrated,01/01/1991 00:00',01/01/2024 00:00',26/01/2001 00:00',0.639677,0.0781775,KGEJSD,Europe,Danube,0.0
587,Izgrev,Danube,Osam,1026,BG,2154.0,2191.91,43.4555,25.0528,25.025,43.475,efas,calibrated,01/01/1991 00:00',01/01/2024 00:00',06/01/2001 00:00',0.696085,0.0755518,KGEJSD,Europe,Danube,0.0
588,Sevlievo,Danube,Rositsa,1026,BG,958.0,1020.97,42.9958,25.1086,25.125,42.975,efas,calibrated,01/01/1991 00:00',01/01/2024 00:00',17/12/2000 00:00',0.604547,0.0540868,KGEJSD,Europe,Danube,0.0
589,Karantsi,Danube,Yantra,1026,BG,6860.0,6858.37,43.3803,25.6672,25.675,43.375,efas,calibrated,01/01/1991 00:00',01/01/2024 00:00',30/01/1998 00:00',0.666643,0.0387005,KGEJSD,Europe,Danube,0.0
590,Dzhuliunitsa,Danube,Dzhulunitsa,1026,BG,882.0,861.35,43.133,25.9059,25.925,43.125,efas,calibrated,01/01/1991 00:00',01/01/2024 00:00',23/01/2001 00:00',0.638249,0.0637406,KGEJSD,Europe,Danube,0.0
591,Shirocovo,Danube,Cherni Lom,1026,BG,1383.0,1417.86,43.5529,25.9458,25.925,43.575,efas,calibrated,02/05/2009 00:00',01/01/2024 00:00',02/05/2009 00:00',0.715666,0.0707559,KGEJSD,Europe,Danube,0.0
592,Plovdiv,Maritsa / Evros,Maritsa / Evros,1026,BG,7926.0,7892.780032,42.1545,24.7388,24.725,42.175,efas,calibrated,08/05/2009 00:00',01/01/2024 00:00',08/05/2009 00:00',0.669774,0.029419,KGEJSD,Europe,SouthEastTurkeyIsraelDon,0.0
593,Svilengrad,Maritsa / Evros,Maritsa / Evros,1026,BG,20857.0,20876.51328,41.7609,26.1961,26.225,41.725,efas,calibrated,02/05/2009 00:00',01/01/2024 00:00',02/05/2009 00:00',0.787731,0.0696044,KGEJSD,Europe,SouthEastTurkeyIsraelDon,0.0
595,Ebro En Castejon,Ebro,Ebro,1012,ES,25194.0,25208.16,42.180075,-1.694672,-1.675,42.175,NRT,calibrated,29/04/2012 00:00',01/01/2024 00:00',29/04/2012 00:00',0.77301,0.0143856,KGEJSD,Europe,SpainPortugal,0.0
596,Ega En Andosilla,Ebro,Ega,1012,ES,1445.0,1343.83,42.374073,-1.948857,-1.925,42.375,NRT,calibrated,29/04/2012 00:00',01/01/2024 00:00',29/04/2012 00:00',0.744135,0.0258069,KGEJSD,Europe,SpainPortugal,0.0
597,Arga En Funes,Ebro,Arga,1012,ES,2759.0,2794.75,42.314788,-1.801186,-1.775,42.375,NRT,calibrated,29/04/2012 00:00',01/01/2024 00:00',29/04/2012 00:00',0.746051,0.0418301,KGEJSD,Europe,SpainPortugal,0.0
600,Ebro En Zaragoza,Ebro,Ebro,1012,ES,40434.0,40300.99,41.658572,-0.881001,-0.875,41.675,NRT,calibrated,29/04/2012 00:00',01/01/2024 00:00',29/04/2012 00:00',0.753797,0.00828284,KGEJSD,Europe,SpainPortugal,0.0
602,Martin En Hijar,Ebro,Martin,1012,ES,1419.0,1496.72,41.174519,-0.453206,-0.475,41.125,HIST,calibrated,01/01/1980 00:00',01/01/2024 00:00',20/06/1993 00:00',0.332339,0.0609855,KGEJSD,Europe,SpainPortugal,0.0
603,Cinca En Fraga,Ebro,Cinca,1012,ES,9612.0,9525.9,41.551916,0.323398,0.325,41.525,NRT,calibrated,29/04/2012 00:00',01/01/2024 00:00',29/04/2012 00:00',0.689229,0.0608371,KGEJSD,Europe,SpainPortugal,0.026286903080961373
604,Segre En Seo De Urgel,Ebro,Segre,1012,ES,1233.0,1234.22,42.352442,1.459801,1.475,42.375,NRT,calibrated,29/04/2012 00:00',01/01/2024 00:00',29/04/2012 00:00',0.804221,0.0344188,KGEJSD,Europe,SpainPortugal,0.0
605,Segre En Seros,Ebro,Segre,1012,ES,12782.0,13004.18,41.45158,0.416323,0.475,41.475,HIST,calibrated,01/01/1980 00:00',01/01/2024 00:00',20/01/1992 00:00',0.668472,0.0549734,KGEJSD,Europe,SpainPortugal,0.0017477522643117467
606,Ebro En Tortosa,Ebro,Ebro,1012,ES,84230.0,84309.54,40.813296,0.520716,0.525,40.825,HIST,calibrated,01/01/1980 00:00',01/01/2024 00:00',25/06/1993 00:00',0.617814,0.04134,KGEJSD,Europe,SpainPortugal,0.0037786053277400105
607,Guadalope Cola Santolea,Ebro,Guadalope,1012,ES,1002.0,1057.01,40.739821,-0.36836,-0.375,40.725,efas,calibrated,01/01/1990 00:00',01/10/2007 00:00',01/01/1990 00:00',0.543391,0.175315,KGEJSD,Europe,SpainPortugal,0.0
608,Bergantes En Zorita,Ebro,Bergantes,1012,ES,1038.0,1058.1,40.778878,-0.155649,-0.175,40.775,NRT,calibrated,29/04/2012 00:00',01/01/2024 00:00',29/04/2012 00:00',0.741756,0.089988,KGEJSD,Europe,SpainPortugal,0.0
611,Najerilla En Torremontalbo,Ebro,Najerilla,1012,ES,1090.0,1031.32,42.498307,-2.68401,-2.675,42.475,NRT,calibrated,29/04/2012 00:00',01/01/2024 00:00',29/04/2012 00:00',0.578347,0.0952073,KGEJSD,Europe,SpainPortugal,0.0
613,Jiloca En Morata De Jiloca,Ebro,Jiloca,1012,ES,2502.0,2506.16,41.251626,-1.58451,-1.575,41.275,NRT,calibrated,29/04/2012 00:00',01/01/2024 00:00',29/04/2012 00:00',0.453907,0.142412,KGEJSD,Europe,SpainPortugal,0.0
614,Gallego En Sta. Eulalia,Ebro,Gallego,1012,ES,1901.0,1894.56,42.271258,-0.750966,-0.725,42.275,NRT,calibrated,29/04/2012 00:00',01/01/2024 00:00',29/04/2012 00:00',0.741949,0.0450777,KGEJSD,Europe,SpainPortugal,0.02398345052970336
615,Irati En Liedena,Ebro,Irati,1012,ES,1546.0,1611.83,42.623685,-1.29483,-1.325,42.625,NRT,calibrated,29/04/2012 00:00',01/01/2024 00:00',29/04/2012 00:00',0.744735,0.0531513,KGEJSD,Europe,SpainPortugal,0.0
618,Jalon En Grisen,Ebro,Jalon,1012,ES,9694.0,9756.3,41.732907,-1.175651,-1.175,41.725,NRT,calibrated,29/04/2012 00:00',01/01/2024 00:00',29/04/2012 00:00',0.655344,0.105743,KGEJSD,Europe,SpainPortugal,0.0
620,Nela En Trespaderne,Ebro,Nela,1012,ES,1093.0,1109.56,42.802417,-3.40162,-3.425,42.825,NRT,calibrated,29/04/2012 00:00',01/01/2024 00:00',29/04/2012 00:00',0.638563,0.0285116,KGEJSD,Europe,SpainPortugal,0.0
621,Oca En Oña,Ebro,Oka,1012,ES,1051.0,1094.29,42.735292,-3.41388,-3.425,42.725,NRT,calibrated,29/04/2012 00:00',01/01/2024 00:00',29/04/2012 00:00',0.707355,0.0507287,KGEJSD,Europe,SpainPortugal,0.0
622,Flumen En Albalatillo,Ebro,Flumen,1012,ES,1499.0,1449.75,41.758431,-0.181336,-0.175,41.775,NRT,calibrated,29/04/2012 00:00',01/01/2024 00:00',29/04/2012 00:00',0.501479,0.0944178,KGEJSD,Europe,SpainPortugal,0.0
629,Segre En Organya,Ebro,Segre,1012,ES,2384.0,2469.04,42.229438,1.343341,1.325,42.225,NRT,calibrated,29/04/2012 00:00',01/01/2024 00:00',29/04/2012 00:00',0.843774,0.0374468,KGEJSD,Europe,SpainPortugal,0.0
631,Ebro En Mendavia,Ebro,Ebro,1012,ES,12010.0,11912.79,42.41571,-2.205411,-2.225,42.425,NRT,calibrated,29/04/2012 00:00',01/01/2024 00:00',29/04/2012 00:00',0.74562,0.0297502,KGEJSD,Europe,SpainPortugal,0.0
635,Ebro En Palazuelos,Ebro,Ebro,1012,ES,4530.0,4496.45,42.791702,-3.343153,-3.325,42.775,NRT,calibrated,29/04/2012 00:00',01/01/2024 00:00',29/04/2012 00:00',0.639149,0.0481943,KGEJSD,Europe,SpainPortugal,0.0
636,Ebro En Asco,Ebro,Ebro,1012,ES,82245.0,82466.38,41.185938,0.569761,0.575,41.225,NRT,calibrated,29/04/2012 00:00',01/01/2024 00:00',29/04/2012 00:00',0.704256,0.036055,KGEJSD,Europe,SpainPortugal,0.0038630592474311917
639,Alhama En Cintruenigo,Ebro,Alhama,1012,ES,1120.0,1219.7,42.079921,-1.811868,-1.825,42.075,NRT,calibrated,29/04/2012 00:00',01/01/2024 00:00',29/04/2012 00:00',0.741619,0.0894215,KGEJSD,Europe,SpainPortugal,0.0
640,R.Alcanadre En Ballobar,Ebro,Alcanadre,1012,ES,3390.0,3359.12,41.6204,0.195275,0.175,41.625,NRT,calibrated,29/04/2012 00:00',01/01/2024 00:00',29/04/2012 00:00',0.693005,0.0670244,KGEJSD,Europe,SpainPortugal,0.0
642,Huerva En Zaragoza,Ebro,Huerva,1012,ES,1017.0,1092.67,41.637059,-0.897818,-0.925,41.625,NRT,calibrated,29/04/2012 00:00',01/01/2024 00:00',29/04/2012 00:00',0.398378,0.0908901,KGEJSD,Europe,SpainPortugal,0.0
643,Arba En Tauste,Ebro,Arba,1012,ES,2193.0,2225.7,41.912961,-1.280026,-1.275,41.925,NRT,calibrated,29/04/2012 00:00',01/01/2024 00:00',29/04/2012 00:00',0.702853,0.0200531,KGEJSD,Europe,SpainPortugal,0.0
646,Jalon En Chodes,Ebro,Jalon,1012,ES,7561.0,7508.89,41.494452,-1.461174,-1.475,41.475,NRT,calibrated,29/04/2012 00:00',01/01/2024 00:00',29/04/2012 00:00',0.653406,0.0485355,KGEJSD,Europe,SpainPortugal,0.0
647,Ebro En Logroño,Ebro,Ebro,1012,ES,1037.0,10331.92,42.470961,-2.44567,-2.475,42.475,NRT,calibrated,29/04/2012 00:00',01/01/2024 00:00',29/04/2012 00:00',0.725574,0.0356832,KGEJSD,Europe,SpainPortugal,0.0
648,Tiron En Haro,Ebro,Tiron,1012,ES,1239.0,1234.34,42.578981,-2.877185,-2.925,42.575,NRT,calibrated,29/04/2012 00:00',01/01/2024 00:00',29/04/2012 00:00',0.788521,0.0495633,KGEJSD,Europe,SpainPortugal,0.0
649,Aragon En Martes,Ebro,Aragón,1012,ES,1083.0,1115.53,42.591487,-0.88283,-0.825,42.575,NRT,calibrated,29/04/2012 00:00',01/01/2024 00:00',29/04/2012 00:00',0.676827,0.0738383,KGEJSD,Europe,SpainPortugal,0.0
653,Arba En Ejea,Ebro,Arba,1012,ES,1046.0,1123.55,42.117427,-1.150894,-1.125,42.125,NRT,calibrated,22/07/2013 00:00',01/01/2024 00:00',22/07/2013 00:00',0.716272,0.111501,KGEJSD,Europe,SpainPortugal,0.0
657,Agerdomajor,Danube,Kraszna,1017,HU,1974.0,2077.41,47.763,22.4201,22.475,47.775,NRT,calibrated,07/09/2009 00:00',01/01/2024 00:00',07/09/2009 00:00',0.68581,0.0611672,KGEJSD,Europe,Danube,0.0
660,Bekes,Danube,Koros,1017,HU,9011.0,9727.3,46.7856,21.1419,21.075,46.825,NRT,calibrated,07/09/2009 00:00',01/01/2024 00:00',07/09/2009 00:00',0.8418,0.0152071,KGEJSD,Europe,Danube,0.0
665,Csenger,Danube,Somes,1017,HU,15283.0,15431.71,47.841,22.6924,22.725,47.825,NRT,calibrated,07/09/2009 00:00',01/01/2024 00:00',07/09/2009 00:00',0.843839,0.0425186,KGEJSD,Europe,Danube,0.0
670,Felsoberecki,Danube,Bodrog,1017,HU,12886.0,12603.03,48.3566,21.692,21.675,48.375,NRT,calibrated,07/09/2009 00:00',01/01/2024 00:00',07/09/2009 00:00',0.811798,0.0202858,KGEJSD,Europe,Danube,0.0
674,Hatvan,Danube,Zagyva,1017,HU,1222.0,1122.14,47.662,19.6826,19.675,47.625,NRT,calibrated,07/09/2009 00:00',01/01/2024 00:00',07/09/2009 00:00',0.741613,0.0516035,KGEJSD,Europe,Danube,0.0
677,Jasztelek,Danube,Zagyva,1017,HU,4207.0,4269.2,47.4838,19.9938,19.975,47.525,NRT,calibrated,07/09/2009 00:00',01/01/2024 00:00',07/09/2009 00:00',0.796866,0.035305,KGEJSD,Europe,Danube,0.0
678,Kiskore also,Danube,Tisza,1017,HU,65670.0,65750.44,47.4927,20.5165,20.525,47.525,NRT,calibrated,07/09/2009 00:00',01/01/2024 00:00',07/09/2009 00:00',0.86314,0.0131925,KGEJSD,Europe,Danube,0.0
682,Korosszakal,Danube,Crișul Repede,1017,HU,2489.0,2603.59,47.0116,21.6081,21.675,47.025,NRT,calibrated,07/09/2009 00:00',01/01/2024 00:00',07/09/2009 00:00',0.670265,0.0442766,KGEJSD,Europe,Danube,0.0
684,Kunszentmarton,Danube,Harmas-Koros,1017,HU,27354.0,28234.05,46.8481,20.2725,20.275,46.875,NRT,calibrated,07/09/2009 00:00',01/01/2024 00:00',07/09/2009 00:00',0.867014,0.0161883,KGEJSD,Europe,Danube,0.0
686,Mako,Danube,Mures,1017,HU,30149.0,29933.08,46.2026,20.4556,20.425,46.225,NRT,calibrated,07/09/2009 00:00',01/01/2024 00:00',07/09/2009 00:00',0.872706,0.00900187,KGEJSD,Europe,Danube,0.0
692,Paks,Danube,Danube,1017,HU,189092.0,187998.98,46.6268,18.8692,18.875,46.625,efas,calibrated,02/01/2018 00:00',01/01/2024 00:00',02/01/2018 00:00',0.892965,0.0064204,KGEJSD,Europe,Danube,0.01823071545127646
693,Pocsaj,Danube,Barcau,1017,HU,3502.0,3800.48,47.2784,21.7975,21.775,47.275,NRT,calibrated,07/09/2009 00:00',01/01/2024 00:00',07/09/2009 00:00',0.738594,0.0510895,KGEJSD,Europe,Danube,0.0
696,Sarvar,Danube,Rába,1017,HU,5566.0,5520.26,47.2467,16.9538,16.975,47.225,NRT,calibrated,07/09/2009 00:00',01/01/2024 00:00',07/09/2009 00:00',0.72377,0.0200638,KGEJSD,Europe,Danube,0.0
699,Szentgotthard,Danube,Rába,1017,HU,3084.0,3117.61,46.9573,16.2759,16.275,46.975,NRT,calibrated,07/09/2009 00:00',01/01/2024 00:00',07/09/2009 00:00',0.696873,0.0216839,KGEJSD,Europe,Danube,0.0
700,Szolnok,Danube,Tisza,1017,HU,73113.0,73125.44,47.1695,20.1888,20.225,47.175,NRT,calibrated,07/09/2009 00:00',01/01/2024 00:00',07/09/2009 00:00',0.873845,0.0150373,KGEJSD,Europe,Danube,0.0
701,Tiszabecs,Danube,Tisza,1017,HU,9707.0,9442.88,48.1034,22.8288,22.825,48.125,NRT,calibrated,07/09/2009 00:00',01/01/2024 00:00',07/09/2009 00:00',0.790661,0.0108095,KGEJSD,Europe,Danube,0.0
703,Tiszapalkonya,Danube,Tisza,1017,HU,62730.0,62689.92,47.8934,21.0582,21.075,47.875,HIST,calibrated,02/01/1988 00:00',01/01/2024 00:00',02/01/1988 00:00',0.873098,0.00402689,KGEJSD,Europe,Danube,0.0
707,Zahony,Danube,Tisza,1017,HU,32782.0,32672.9,48.4131,22.1728,22.175,48.425,NRT,calibrated,11/09/2009 00:00',01/01/2024 00:00',11/09/2009 00:00',0.874817,0.0187818,KGEJSD,Europe,Danube,0.0
715,Bacsa,Danube,Moson-Danube,1017,HU,17732.0,18131.57,47.7251,17.6763,17.675,47.725,efas,calibrated,01/01/2015 00:00',31/12/2022 00:00',01/01/2015 00:00',0.786316,0.0300079,KGEJSD,Europe,Danube,0.0
772,GUSIN,Vistula,Vistula,1024,PL,81844.16,81638.66,51.892778,21.254444,21.275,51.875,NRT,calibrated,04/03/2018 00:00',01/01/2024 00:00',04/03/2018 00:00',0.872116,0.0289741,KGEJSD,Europe,Vistula,0.0
773,KĘPA POLSKA,Vistula,Vistula,1024,PL,168357.53,167610.35,52.431389,19.963333,19.975,52.425,NRT,calibrated,04/03/2018 00:00',01/01/2024 00:00',04/03/2018 00:00',0.863698,0.0346201,KGEJSD,Europe,Vistula,0.0
774,FRANKOPOL,Vistula,Western Bug,1024,PL,30636.63,29679.06,52.415,22.560833,22.525,52.425,NRT,calibrated,04/03/2018 00:00',01/01/2024 00:00',04/03/2018 00:00',0.743623,0.0641839,KGEJSD,Europe,Vistula,0.0
775,Bistra,Danube,Viseu,1001,RO,1547.0,1542.02,47.863,24.1931,24.225,47.875,NRT,calibrated,04/12/2011 00:00',01/01/2024 00:00',04/12/2011 00:00',0.729274,0.0598518,KGEJSD,Europe,Danube,0.0
777,Beclean,Danube,Somesul Mare,1001,RO,,4356.0,47.177167,24.151194,24.125,47.175,NRT,calibrated,04/12/2011 00:00',01/01/2024 00:00',04/12/2011 00:00',0.784364,0.0366058,KGEJSD,Europe,Danube,0.0
778,Zerind,Danube,Crisul Negru,1001,RO,3702.0,3849.04,46.627167,21.515611,21.525,46.625,NRT,calibrated,04/12/2011 00:00',01/01/2024 00:00',04/12/2011 00:00',0.799693,0.0430379,KGEJSD,Europe,Danube,0.0
779,Chisineu Cris,Danube,Crisul Alb,1001,RO,,3726.18,46.519528,21.509667,21.525,46.525,NRT,calibrated,04/12/2011 00:00',01/01/2024 00:00',04/12/2011 00:00',0.816068,0.0429984,KGEJSD,Europe,Danube,0.0
780,Salard,Danube,Barcau,1001,RO,,1767.45,47.231528,22.028167,22.025,47.225,NRT,calibrated,04/12/2011 00:00',01/01/2024 00:00',04/12/2011 00:00',0.759712,0.0800762,KGEJSD,Europe,Danube,0.0
782,Alba Iulia,Danube,Mures,1001,RO,18055.0,19416.6,46.036056,23.581361,23.575,46.025,HIST,calibrated,01/01/1980 00:00',01/01/2023 00:00',30/10/2000 00:00',0.83433,0.017249,KGEJSD,Europe,Danube,0.0
783,Arad,Danube,Mures,1001,RO,27280.0,27383.58,46.159889,21.320806,21.325,46.175,HIST,calibrated,01/01/1980 00:00',01/01/2023 00:00',27/10/2000 00:00',0.881197,0.00842934,KGEJSD,Europe,Danube,0.0
784,Turda,Danube,Aries,1001,RO,,2647.09,46.566278,23.784444,23.775,46.575,NRT,calibrated,05/12/2011 00:00',29/12/2023 00:00',05/12/2011 00:00',0.617067,0.0237096,KGEJSD,Europe,Danube,0.0
785,Mihalt,Danube,Tarnava Mare,1001,RO,,6427.13,46.171611,23.730167,23.775,46.175,HIST,calibrated,02/01/2000 00:00',01/01/2023 00:00',27/10/2000 00:00',0.808917,0.0200352,KGEJSD,Europe,Danube,0.0
786,Sag,Danube,Timis,1001,RO,4493.0,4583.55,45.6462,21.1781,21.175,45.625,NRT,calibrated,05/12/2011 00:00',01/01/2024 00:00',05/12/2011 00:00',0.768453,0.0263254,KGEJSD,Europe,Danube,0.0
787,Podari,Danube,Jiu,1001,RO,9334.0,9237.34,44.260139,23.78675,23.825,44.275,NRT,calibrated,04/12/2011 00:00',01/01/2024 00:00',04/12/2011 00:00',0.760395,0.0219182,KGEJSD,Europe,Danube,0.0
788,Bals,Danube,Oltet,1001,RO,,2131.98,44.348333,24.098889,24.125,44.375,NRT,calibrated,04/12/2011 00:00',01/01/2024 00:00',04/12/2011 00:00',0.65322,0.0844126,KGEJSD,Europe,Danube,0.0
789,Alexandria,Danube,Vedea,1001,RO,,3338.98,43.986778,25.318806,25.325,43.975,efas,calibrated,02/01/2000 00:00',01/01/2024 00:00',18/01/2003 00:00',0.645479,0.335126,KGE,Europe,Danube,0.0
790,Calugareni,Danube,Neajlov,1001,RO,,3280.05,44.171167,25.996917,26.025,44.175,efas,calibrated,02/01/2000 00:00',01/01/2024 00:00',20/01/2003 00:00',0.695124,0.0279158,KGEJSD,Europe,Danube,0.0
791,Adancata,Danube,Prahova,1001,RO,,2252.12,44.755833,26.460583,26.425,44.775,HIST,calibrated,02/01/2000 00:00',01/01/2023 00:00',27/10/2000 00:00',0.683714,0.0433273,KGEJSD,Europe,Danube,0.0
792,Itcani,Danube,Suceava,1001,RO,,2394.1,47.672778,26.234639,26.225,47.675,efas,calibrated,02/01/2000 00:00',01/01/2024 00:00',19/01/2003 00:00',0.740099,0.0291573,KGEJSD,Europe,Danube,0.0
793,Vranceni,Danube,Trotus,1001,RO,,4146.0,46.209667,26.89525,26.875,46.225,efas,calibrated,02/01/2000 00:00',01/01/2024 00:00',18/01/2003 00:00',0.718264,0.037909,KGEJSD,Europe,Danube,0.0
794,Botarlau,Danube,Putna,1001,RO,,3089.21,45.632194,27.386417,27.375,45.625,NRT,calibrated,05/12/2011 00:00',01/01/2024 00:00',05/12/2011 00:00',0.682326,0.0534706,KGEJSD,Europe,Danube,0.0
796,Dragesti,Danube,Siret,1001,RO,11899.0,11796.06,46.723639,26.945444,26.925,46.725,HIST,calibrated,01/01/1980 00:00',01/01/2023 00:00',30/10/2000 00:00',0.747424,0.0776726,KGEJSD,Europe,Danube,0.0
797,Radauti,Danube,Prut,1001,RO,9074.0,9322.66,48.238806,26.824,26.775,48.225,efas,calibrated,01/01/1990 00:00',01/01/2024 00:00',09/12/2002 00:00',0.65449,0.0519277,KGEJSD,Europe,Danube,0.0
798,Bazias,Danube,Danube,1001,RO,570896.0,562121.61,44.8087,21.3901,21.375,44.775,efas,calibrated,02/01/1991 00:00',23/10/2022 00:00',16/10/1998 00:00',0.881337,0.00634733,KGEJSD,Europe,Danube,0.008052237362278428
799,Hoghiz,Danube,Olt,1001,RO,7225.0,7040.22,45.991889,25.301083,25.325,45.975,efas,calibrated,09/03/2012 00:00',01/01/2024 00:00',09/03/2012 00:00',0.641462,0.0786852,KGEJSD,Europe,Danube,0.0
800,Gurahont,Danube,Crisul Alb,1001,RO,,1693.45,46.277722,22.34225,22.325,46.275,efas,calibrated,16/03/2013 00:00',01/01/2024 00:00',16/03/2013 00:00',0.8221,0.0250633,KGEJSD,Europe,Danube,0.0
802,Lugoj,Danube,Timis,1001,RO,,2762.03,45.6837,21.9073,21.925,45.675,NRT,calibrated,05/12/2011 00:00',01/01/2024 00:00',05/12/2011 00:00',0.742339,0.0638514,KGEJSD,Europe,Danube,0.0
803,Tupilati,Danube,Moldova,1001,RO,,3963.47,47.084639,26.648111,26.625,47.075,efas,calibrated,02/01/2000 00:00',01/01/2024 00:00',19/01/2003 00:00',0.781703,0.0423598,KGEJSD,Europe,Danube,0.0
804,Frumosu,Danube,Bistrita,1001,RO,,2962.02,47.142472,25.861917,25.875,47.125,HIST,calibrated,02/01/2000 00:00',01/01/2023 00:00',13/09/2002 00:00',0.848102,0.0230995,KGEJSD,Europe,Danube,0.0
805,Ceatal Izmail,Danube,Ialomița,1001,RO,807000.0,785749.51,45.180222,28.8,28.775,45.225,efas,calibrated,01/01/1990 00:00',01/01/2009 00:00',01/01/1990 00:00',0.839218,0.0145797,KGEJSD,Europe,Danube,0.005760537985766406
807,Zimnicea,Danube,Danube,1001,RO,658400.0,641867.38,43.630194,25.357306,25.375,43.625,HIST,calibrated,01/01/1980 00:00',01/01/2011 00:00',25/12/1990 00:00',0.847776,0.0114943,KGEJSD,Europe,Danube,0.007051829247297327
808,Lungoci,Danube,Siret,1001,RO,36030.0,36463.37,45.556611,27.509972,27.525,45.575,efas,calibrated,01/01/1990 00:00',01/01/2011 00:00',27/12/1990 00:00',0.726488,0.0268249,KGEJSD,Europe,Danube,0.0
809,Cosereni,Danube,Ialomița,1001,RO,6265.0,6367.91,44.696972,26.571694,26.575,44.675,efas,calibrated,01/01/1990 00:00',01/01/2011 00:00',02/01/1991 00:00',0.679021,0.0589769,KGEJSD,Europe,Danube,0.0
811,Cornet,Danube,Olt,1001,RO,13733.0,13735.92,45.385111,24.297222,24.325,45.375,efas,calibrated,01/01/1990 00:00',01/01/2011 00:00',27/12/1990 00:00',0.80804,0.00923146,KGEJSD,Europe,Danube,0.0
817,Kormend,Danube,Rába,1017,HU,4734.0,4718.99,47.0064,16.6106,16.625,47.025,NRT,calibrated,07/09/2009 00:00',01/01/2024 00:00',07/09/2009 00:00',0.756546,0.0244947,KGEJSD,Europe,Danube,0.0
823,Gamzigrad,Danube,Crni Timok,1020,RS,1213.0,1204.42,43.924319,22.173151,22.175,43.925,HIST,calibrated,01/01/1980 00:00',01/01/2024 00:00',16/01/1996 00:00',0.75604,0.0366306,KGEJSD,Europe,Danube,0.0
829,Räpina,Narva,Vohandu jogi,1028,EE,1130.0,1122.46,58.09556,27.45446,27.425,58.075, ,calibrated,01/01/1980 00:00',01/02/2020 00:00',05/03/1998 00:00',0.758494,0.0277144,KGEJSD,Europe,NevaNarvaParnuVuoski,0.0
830,Aarschot,Scheldt,Demer,1022,BE,2146.42,2094.79,50.987652,4.822323,4.775,50.975,NRT,calibrated,01/11/2011 00:00',01/01/2024 00:00',01/11/2011 00:00',0.810198,0.0488346,KGEJSD,Europe,RhineMaasScheldtSeine,0.0
832,Raska,Danube,Ibar,1020,RS,6270.0,6260.93,43.296433,20.613816,20.625,43.275,NRT,calibrated,29/08/2011 00:00',01/01/2024 00:00',29/08/2011 00:00',0.723486,0.0382158,KGEJSD,Europe,Danube,0.0
833,L'Ill à Ensisheim,Rhine,Ill,1021,FR,1038.0,1002.27,47.866887,7.348209,7.375,47.875,HIST,calibrated,02/01/1980 00:00',01/01/2024 00:00',02/01/2004 00:00',0.817929,0.0938732,KGEJSD,Europe,RhineMaasScheldtSeine,0.0
840,Sisinec,Danube,Kupa,1031,HR,7364.0,6943.5,45.4485,16.077194,16.075,45.425,NRT,calibrated,23/05/2012 00:00',01/01/2024 00:00',23/05/2012 00:00',0.771468,0.0176353,KGEJSD,Europe,Danube,0.0
842,Kostajnica,Danube,Una,1031,HR,8876.0,7638.21,45.222389,16.548722,16.625,45.225,HIST,calibrated,03/01/2009 00:00',01/01/2024 00:00',03/01/2009 00:00',0.732549,0.0513588,KGEJSD,Europe,Danube,0.0
845,Zagreb,Danube,Sava,1031,HR,12450.0,11413.22,45.7845,15.953306,16.025,45.775,NRT,calibrated,23/05/2012 00:00',01/01/2024 00:00',23/05/2012 00:00',0.749792,0.0313118,KGEJSD,Europe,Danube,0.0
851,Stara Gradiska,Danube,Sava,1031,HR,40262.0,37758.1,45.15025,17.249944,17.275,45.175,HIST,calibrated,03/01/2009 00:00',01/01/2024 00:00',03/01/2009 00:00',0.746968,0.0307022,KGEJSD,Europe,Danube,0.0
854,Slavonski Brod,Danube,Sava,1031,HR,50858.0,47676.93,45.152944,18.004778,18.025,45.125,NRT,calibrated,23/05/2012 00:00',01/01/2024 00:00',23/05/2012 00:00',0.773356,0.0382999,KGEJSD,Europe,Danube,0.0
856,Zupanja Stepenica,Danube,Sava,1031,HR,62891.0,60130.68,45.073472,18.686667,18.675,45.075,NRT,calibrated,23/05/2012 00:00',01/01/2024 00:00',23/05/2012 00:00',0.793541,0.0346769,KGEJSD,Europe,Danube,0.0
857,Donja Dubrava,Danube,Drava,1031,HR,16770.0,17029.65,46.309028,16.816639,16.775,46.325,NRT,calibrated,01/11/2012 00:00',01/01/2024 00:00',01/11/2012 00:00',0.867593,0.0126566,KGEJSD,Europe,Danube,0.06329378522901258
858,Botovo,Danube,Drava,1031,HR,31038.0,31446.6,46.242361,16.939111,16.925,46.225,NRT,calibrated,28/10/2012 00:00',01/01/2024 00:00',28/10/2012 00:00',0.857922,0.0107814,KGEJSD,Europe,Danube,0.034947475867786466
860,Terezino Polje,Danube,Drava,1031,HR,33916.0,34238.64,45.944528,17.461778,17.425,45.925,NRT,calibrated,28/10/2012 00:00',01/01/2024 00:00',28/10/2012 00:00',0.879279,0.0109022,KGEJSD,Europe,Danube,0.03209763229825368
863,Donji Miholjac C.S.,Danube,Drava,1031,HR,37142.0,38098.42,45.774639,18.172444,18.175,45.775,NRT,calibrated,28/10/2012 00:00',01/01/2024 00:00',28/10/2012 00:00',0.890572,0.0138965,KGEJSD,Europe,Danube,0.028845795292639625
870,Ilok most,Danube,Danube,1031,HR,253737.0,254536.86,45.231111,19.401667,19.375,45.225,NRT,calibrated,28/10/2012 00:00',01/01/2024 00:00',28/10/2012 00:00',0.821821,0.0173446,KGEJSD,Europe,Danube,0.017782636047271008
876,Günzburg u. d. Günzmündung,Danube,Danube,1025,DE,9399.96,9342.51,48.4654,10.285,10.325,48.475,NRT,calibrated,01/02/2013 00:00',01/01/2024 00:00',01/02/2013 00:00',0.90451,0.0607955,KGEJSD,Europe,Danube,0.0
886,Pfelling,Danube,Danube,1025,DE,37757.18,37602.13,48.8798,12.7472,12.725,48.875,NRT,calibrated,14/01/2013 00:00',01/01/2024 00:00',14/01/2013 00:00',0.896848,0.0144282,KGEJSD,Europe,Danube,0.0016799421391428854
892,Wiblingen,Danube,Iller,1025,DE,2040.21,2104.67,48.3708,9.9874,10.025,48.325,NRT,calibrated,14/01/2013 00:00',01/01/2024 00:00',14/01/2013 00:00',0.84187,0.0120517,KGEJSD,Europe,Danube,0.0
895,Augsburg u. d. Wertachmündung,Danube,Lech,1025,DE,3802.87,4151.33,48.4081,10.888,10.875,48.425,NRT,calibrated,14/01/2013 00:00',01/01/2024 00:00',14/01/2013 00:00',0.775734,0.0350997,KGEJSD,Europe,Danube,0.015216686164619268
900,Heitzenhofen,Danube,Naab,1025,DE,5431.64,5411.99,49.1183,11.9363,11.975,49.075,NRT,calibrated,14/01/2013 00:00',01/01/2024 00:00',14/01/2013 00:00',0.85298,0.017005,KGEJSD,Europe,Danube,0.0
903,Marienthal,Danube,Regen,1025,DE,2590.4,2596.53,49.223,12.1756,12.225,49.225,NRT,calibrated,14/01/2013 00:00',01/01/2024 00:00',14/01/2013 00:00',0.854725,0.0229939,KGEJSD,Europe,Danube,0.0
904,München,Danube,Isar,1025,DE,2814.0,3072.13,48.1455,11.5969,11.575,48.125,NRT,calibrated,14/01/2013 00:00',01/01/2024 00:00',14/01/2013 00:00',0.817494,0.0614666,KGEJSD,Europe,Danube,0.013659053033988703
928,Pettstadt,Rhine,Regnitz,1025,DE,6991.0,7143.9,49.8328,10.9489,10.975,49.825,NRT,calibrated,14/01/2013 00:00',01/01/2024 00:00',14/01/2013 00:00',0.868502,0.0278919,KGEJSD,Europe,RhineMaasScheldtSeine,0.0
931,Lauffen,Rhine,Neckar,1004,DE,7916.0,7910.96,49.072307,9.159831,9.175,49.025,NRT,calibrated,16/08/2012 00:00',01/01/2024 00:00',16/08/2012 00:00',0.863692,0.0254335,KGEJSD,Europe,RhineMaasScheldtSeine,0.0
933,Rockenau SKA,Rhine,Neckar,1004,DE,1271.0,12777.03,49.43823,9.005064,9.025,49.425,HIST,calibrated,01/01/1980 00:00',01/01/2010 00:00',02/01/1990 00:00',0.890001,0.0105673,KGEJSD,Europe,RhineMaasScheldtSeine,0.0
934,Hattingen,Rhine,Ruhr,1004,DE,4117.94,4269.09,51.399742,7.160984,7.175,51.375,NRT,calibrated,16/08/2012 00:00',01/01/2024 00:00',16/08/2012 00:00',0.836052,0.0644381,KGEJSD,Europe,RhineMaasScheldtSeine,0.0
941,Lieske,Elbe,Spree,1007,DE,775.0,817.73,51.330587,14.530304,14.525,51.325,NRT,calibrated,01/01/2013 00:00',16/03/2023 00:00',01/01/2013 00:00',0.799812,0.0315592,KGEJSD,Europe,ElbeOderEmsWeser,0.0
952,Sorbolo,Po,Enza,1016,IT,,816.71,44.843971,10.454047,10.425,44.825,NRT,calibrated,09/05/2012 00:00',08/11/2017 00:00',09/05/2012 00:00',0.700402,0.0615266,KGEJSD,Europe,PoAdigeReno,0.0
953,St. Pieter Noord,Meuse,Meuse,1008,NL,21100.0,21379.37,50.830306,5.697333,5.675,50.825,NRT,calibrated,29/11/2012 00:00',01/01/2024 00:00',29/11/2012 00:00',0.905892,0.0124129,KGEJSD,Europe,RhineMaasScheldtSeine,0.0
968,Corbones_Ca,Guadalquivir,Corbones,1040,ES,1377.0,1698.28,37.563713,-5.606802,-5.575,37.525,NRT,calibrated,01/01/2012 00:00',01/01/2024 00:00',01/01/2012 00:00',0.767844,0.138029,KGE,Europe,SpainPortugal,0.0
972,Genil_Ecija,Guadalquivir,Genil,1040,ES,8028.0,8094.54,37.558053,-5.077749,-5.075,37.525,NRT,calibrated,01/01/2012 00:00',01/01/2024 00:00',01/01/2012 00:00',0.688606,0.0517642,KGEJSD,Europe,SpainPortugal,0.0
973,Genil_Loja,Guadalquivir,Genil,1040,ES,4220.0,4062.93,37.175136,-4.166639,-4.175,37.175,NRT,calibrated,01/01/2012 00:00',01/01/2024 00:00',01/01/2012 00:00',0.348362,0.0984512,KGEJSD,Europe,SpainPortugal,0.0
977,Guadalb_Men,Guadalquivir,Guadalbullon,1040,ES,1111.0,1125.51,37.974215,-3.78081,-3.775,37.925,NRT,calibrated,01/01/2012 00:00',01/01/2024 00:00',01/01/2012 00:00',0.74176,0.0664391,KGEJSD,Europe,SpainPortugal,0.0
978,Guadalq_Men,Guadalquivir,Guadalquivir,1040,ES,16166.0,16176.6,37.98415,-3.79918,-3.775,37.975,NRT,calibrated,01/01/2012 00:00',01/01/2024 00:00',01/01/2012 00:00',0.681351,0.038937,KGEJSD,Europe,SpainPortugal,0.0
990,Bobadilla,Guadalhorce,Guadalhorce,1030,ES,761.0,789.64,37.040024,-4.695745,-4.675,37.025,HIST,calibrated,01/01/1980 00:00',31/12/2022 00:00',01/01/1980 00:00',0.78666,0.394921,KGE,Europe,SpainPortugal,0.0
998,Trasvase de Majaceite,Guadiaro,Guadiaro,1030,ES,482.0,520.46,36.57886,-5.337874,-5.325,36.575,HIST,calibrated,22/03/2007 00:00',31/12/2022 00:00',22/03/2007 00:00',0.846901,0.051682,KGEJSD,Europe,SpainPortugal,0.0
1002,La Garonne à Tonneins,Garonne,Garonne,1021,FR,51500.0,50239.46,44.38893,0.301146,0.275,44.425,NRT,calibrated,12/12/2018 00:00',01/01/2024 00:00',12/12/2018 00:00',0.892505,0.0350674,KGEJSD,Europe,LoireGirondeRhoneFranceCoast,0.002263053902038932
1006,La Cure à Arcy-sur-Cure,Seine,Cure,1021,FR,1182.0,1259.56,47.602645,3.756716,3.775,47.575,NRT,calibrated,25/11/2018 00:00',01/01/2024 00:00',25/11/2018 00:00',0.758183,0.0233239,KGEJSD,Europe,RhineMaasScheldtSeine,0.0
1007,La Brenne à Montbard,Seine,Brenne,1021,FR,732.0,733.41,47.623213,4.323838,4.375,47.625,NRT,calibrated,07/08/2017 00:00',01/01/2024 00:00',07/08/2017 00:00',0.803824,0.0429563,KGEJSD,Europe,RhineMaasScheldtSeine,0.0
1008,L'Armançon à Tronchoy,Seine,Armançon,1021,FR,1983.0,1986.64,47.91354,3.93892,3.925,47.925,NRT,calibrated,02/03/2019 00:00',01/01/2024 00:00',02/03/2019 00:00',0.776953,0.0726146,KGEJSD,Europe,RhineMaasScheldtSeine,0.0
1009,La Vingeanne à Oisilly,Rhône,Vingeanne,1021,FR,609.0,605.84,47.42158,5.367214,5.375,47.425,HIST,calibrated,02/01/1980 00:00',26/05/2021 00:00',24/05/2001 00:00',0.793972,0.0609589,KGEJSD,Europe,LoireGirondeRhoneFranceCoast,0.0
1010,L'Ouche à Plombières-lès-Dijon,Rhône,Ouche,1021,FR,651.0,652.0,47.332537,4.980953,4.975,47.325,HIST,calibrated,02/01/1980 00:00',26/05/2021 00:00',27/05/2001 00:00',0.765507,0.0381799,KGEJSD,Europe,LoireGirondeRhoneFranceCoast,0.0
1011,L'Azergues à Lozanne,Rhône,Azergues,1021,FR,792.0,840.9,45.858588,4.687614,4.675,45.875,HIST,calibrated,02/01/1980 00:00',01/01/2024 00:00',02/01/2004 00:00',0.659962,0.0724994,KGEJSD,Europe,LoireGirondeRhoneFranceCoast,0.0
1013,L'Ain à Chazey-sur-Ain,Rhône,Ain,1021,FR,3630.0,3699.21,45.906383,5.234015,5.225,45.925,HIST,calibrated,01/01/1990 00:00',01/01/2024 00:00',02/01/2004 00:00',0.792885,0.0760198,KGEJSD,Europe,LoireGirondeRhoneFranceCoast,0.0
1017,Nybergsund,Gota,Trysilelva / Klaralven,1002,NO,4420.24,4410.23,61.259078,12.322496,12.325,61.275,NRT,calibrated,17/12/2013 00:00',01/01/2024 00:00',17/12/2013 00:00',0.835003,0.053854,KGEJSD,Europe,SwedenNorway,0.0
1020,Iijärvi - luusua,Naatamo,Iijarvi,1011,FI,744.0,763.11,69.509454,28.037857,28.025,69.525,NRT,calibrated,15/07/2013 00:00',01/01/2024 00:00',15/07/2013 00:00',0.563702,0.0769788,KGEJSD,Europe,SwedenNorway,0.0
1022,Aulestad,Glomma,Gausa,1002,NO,866.36,850.87,61.215377,10.270885,10.275,61.225,NRT,calibrated,09/10/2013 00:00',01/01/2024 00:00',09/10/2013 00:00',0.720959,0.0736113,KGEJSD,Europe,SwedenNorway,0.0
1026,Viksvatn (Hestadfjorden),Gaula (Sande),Gaula (Sande),1002,NO,508.13,506.41,61.333056,5.886256,5.925,61.325,NRT,calibrated,07/10/2013 00:00',01/01/2024 00:00',07/10/2013 00:00',0.657485,0.0444434,KGEJSD,Europe,SwedenNorway,0.3231855627300513
1030,Vækkava. Iesjokka,Tana,Lesjokka,1002,NO,2079.25,2082.82,69.426393,24.938337,24.925,69.425,NRT,calibrated,07/10/2013 00:00',01/01/2024 00:00',07/10/2013 00:00',0.618683,0.190441,KGE,Europe,SwedenNorway,0.0
1031,Unsetåa,Glomma,Unsetaa,1002,NO,618.36,625.21,61.94611,11.083512,11.075,61.975,NRT,calibrated,07/10/2013 00:00',01/01/2024 00:00',07/10/2013 00:00',0.789772,0.0332491,KGEJSD,Europe,SwedenNorway,0.0
1033,Trangen,Namsen,Sanddola,1002,NO,852.39,925.61,64.430467,12.481649,12.525,64.475,NRT,calibrated,07/10/2013 00:00',01/01/2024 00:00',07/10/2013 00:00',0.755395,0.0386974,KGEJSD,Europe,SwedenNorway,0.0
1036,Syrstad,Orkla,Orkla,1002,NO,2278.13,2325.42,63.032252,9.727708,9.725,63.025,NRT,calibrated,07/10/2013 00:00',01/01/2024 00:00',07/10/2013 00:00',0.630277,0.0771976,KGEJSD,Europe,SwedenNorway,0.0
1037,Bertnem,Namsen,Namsen,1002,NO,5161.54,5343.26,64.468065,12.058677,12.075,64.475,NRT,calibrated,07/10/2013 00:00',01/01/2024 00:00',07/10/2013 00:00',0.708105,0.0517702,KGEJSD,Europe,SwedenNorway,0.02444399253677375
1040,Svartfossberget,Reisaelva,Reisaelva,1002,NO,1932.29,1965.86,69.52854,21.381661,21.375,69.525,NRT,calibrated,07/10/2013 00:00',01/01/2024 00:00',07/10/2013 00:00',0.759346,0.0902179,KGEJSD,Europe,SwedenNorway,0.0
1041,Blaker,Glomma,Glomma,1002,NO,38588.11,38541.25,60.004052,11.299323,11.325,60.025,NRT,calibrated,29/07/2014 00:00',01/01/2024 00:00',29/07/2014 00:00',0.788423,0.046598,KGEJSD,Europe,SwedenNorway,0.05194338614918556
1048,Stuvane,Laerdalselva,Laerdalselva,1002,NO,994.19,1068.86,61.044155,7.619074,7.625,61.025,NRT,calibrated,07/10/2013 00:00',01/01/2024 00:00',07/10/2013 00:00',0.826262,0.0722935,KGEJSD,Europe,SwedenNorway,0.014024492633279437
1050,Bruhaug,Lagen,Numedalslagen,1002,NO,3461.42,3435.98,60.030147,9.235398,9.225,60.025,NRT,calibrated,07/10/2013 00:00',01/01/2024 00:00',07/10/2013 00:00',0.645403,0.113345,KGEJSD,Europe,SwedenNorway,0.0
1056,Bulken (Vangsvatnet),Vosso,Vosso,1002,NO,1092.04,1003.52,60.628683,6.292537,6.275,60.625,NRT,calibrated,07/10/2013 00:00',01/01/2024 00:00',07/10/2013 00:00',0.701439,0.0235272,KGEJSD,Europe,SwedenNorway,0.06061963996743054
1060,Driva v/Elverhøy bru,Driva,Driva,1002,NO,2437.41,2368.92,62.64874,8.694089,8.675,62.675,NRT,calibrated,07/10/2013 00:00',01/01/2024 00:00',07/10/2013 00:00',0.794557,0.0598903,KGEJSD,Europe,SwedenNorway,0.2000565717315797
1061,Driva v/Risefoss,Driva,Driva,1002,NO,745.38,735.58,62.511384,9.592639,9.575,62.525,NRT,calibrated,07/10/2013 00:00',01/01/2024 00:00',07/10/2013 00:00',0.777907,0.0254316,KGEJSD,Europe,SwedenNorway,0.1568596850166841
1062,Eggafoss,Gaula (Melhus),Gaula (Melhus),1002,NO,654.24,639.82,62.890107,11.18388,11.175,62.875,NRT,calibrated,07/10/2013 00:00',01/01/2024 00:00',07/10/2013 00:00',0.409171,0.088142,KGEJSD,Europe,SwedenNorway,0.0
1068,Selfors bru,Beiarelva,Beiarelva,1002,NO,788.34,795.63,66.996977,14.698448,14.675,66.975,NRT,calibrated,09/10/2013 00:00',01/01/2024 00:00',09/10/2013 00:00',0.838743,0.0117207,KGEJSD,Europe,SwedenNorway,0.2928122842050537
1070,Salsvatn,Moelva,Salsvatnet,1002,NO,431.9,518.48,64.705377,11.454362,11.475,64.725,NRT,calibrated,07/10/2013 00:00',01/01/2024 00:00',07/10/2013 00:00',0.774656,0.0361311,KGEJSD,Europe,SwedenNorway,0.0
1075,Rauma v/Horgheim,Rauma,Rauma,1002,NO,1099.42,1158.23,62.473214,7.78144,7.825,62.475,NRT,calibrated,07/10/2013 00:00',01/01/2024 00:00',07/10/2013 00:00',0.883206,0.00648634,KGEJSD,Europe,SwedenNorway,0.25003068938098655
1076,Rathe,Nea,Nea,1002,NO,3057.88,3067.56,63.384904,10.390233,10.425,63.375,NRT,calibrated,07/10/2013 00:00',01/01/2024 00:00',07/10/2013 00:00',0.523492,0.0890969,KGEJSD,Europe,SwedenNorway,0.0
1077,Polmak nye,Tana,Tana,1002,NO,14158.06,14118.97,70.070345,28.016008,28.025,70.075,NRT,calibrated,04/10/2013 00:00',01/01/2024 00:00',04/10/2013 00:00',0.727266,0.245992,KGE,Europe,SwedenNorway,0.0
1082,Øvrevatn,Salangs,Svartdalsbekken,1002,NO,526.02,496.9,68.857619,17.941075,17.925,68.875,NRT,calibrated,07/10/2013 00:00',01/01/2024 00:00',07/10/2013 00:00',0.694273,0.0372223,KGEJSD,Europe,SwedenNorway,0.27402895235516816
1083,Omnesfoss,Skien,Heddola,1002,NO,807.71,815.55,59.611714,8.993231,9.025,59.575,NRT,calibrated,07/10/2013 00:00',01/01/2024 00:00',07/10/2013 00:00',0.677226,0.114544,KGEJSD,Europe,SwedenNorway,0.0
1086,Flaksvatn,Tovdal,Tovdal,1002,NO,1780.66,1777.51,58.330464,8.203061,8.225,58.325,NRT,calibrated,07/10/2013 00:00',01/01/2024 00:00',07/10/2013 00:00',0.754483,0.0331262,KGEJSD,Europe,SwedenNorway,0.0
1088,Fustvatn,Fusta,Fusta,1002,NO,525.69,533.19,65.905237,13.307593,13.325,65.925,NRT,calibrated,07/10/2013 00:00',01/01/2024 00:00',07/10/2013 00:00',0.763991,0.0348369,KGEJSD,Europe,SwedenNorway,0.1190884243215547
1091,Nervoll,Vefsna,Vefsna,1002,NO,653.36,662.21,65.437572,13.986036,14.025,65.475,NRT,calibrated,07/10/2013 00:00',01/01/2024 00:00',07/10/2013 00:00',0.709502,0.0257665,KGEJSD,Europe,SwedenNorway,0.17631994548712362
1092,Nedre Sjodalsvatn,Glomma,Sjoa,1002,NO,479.97,445.4,61.560274,8.927067,8.925,61.525,NRT,calibrated,07/10/2013 00:00',01/01/2024 00:00',07/10/2013 00:00',0.609187,0.0424693,KGEJSD,Europe,SwedenNorway,0.5667801156296445
1099,Gaulfoss,Gaula (Melhus),Gaula (Melhus),1002,NO,3086.41,3035.27,63.108479,10.229018,10.225,63.075,NRT,calibrated,07/10/2013 00:00',01/01/2024 00:00',07/10/2013 00:00',0.858317,0.0188437,KGEJSD,Europe,SwedenNorway,0.0
1101,Masi,Altaelva,Kautokeinoelva,1002,NO,5620.81,5660.9,69.420041,23.635036,23.625,69.425,NRT,calibrated,07/10/2013 00:00',01/01/2024 00:00',07/10/2013 00:00',0.776184,0.0505136,KGEJSD,Europe,SwedenNorway,0.0
1103,Gjedlakleiv,Bjerkreim,Bjerkreim,1002,NO,635.15,597.47,58.573402,6.066195,6.025,58.525,NRT,calibrated,07/10/2013 00:00',01/01/2024 00:00',07/10/2013 00:00',0.602459,0.0715698,KGEJSD,Europe,SwedenNorway,0.0
1107,Malangsfoss,Malselv,Malselv,1002,NO,3110.65,3253.66,69.034928,18.658337,18.675,69.025,NRT,calibrated,07/10/2013 00:00',01/01/2024 00:00',07/10/2013 00:00',0.803438,0.0447058,KGEJSD,Europe,SwedenNorway,0.1445196485443087
1110,Grunnfoss,Verdal,Helgaa,1002,NO,880.37,973.21,63.79118,11.809693,11.825,63.775,NRT,calibrated,07/10/2013 00:00',01/01/2024 00:00',07/10/2013 00:00',0.821152,0.0371279,KGEJSD,Europe,SwedenNorway,0.0
1114,Laksfors,Vefsna,Vefsna,1002,NO,3653.4,3649.11,65.621554,13.291557,13.325,65.625,NRT,calibrated,07/10/2013 00:00',01/01/2024 00:00',07/10/2013 00:00',0.861857,0.0193913,KGEJSD,Europe,SwedenNorway,0.13507475093590146
1115,Kvenna,Skien,Kvenna,1002,NO,822.26,822.83,60.01842,7.865456,7.925,60.025,NRT,calibrated,07/10/2013 00:00',01/01/2024 00:00',07/10/2013 00:00',0.826771,0.0418024,KGEJSD,Europe,SwedenNorway,0.07546904930912252
1119,Kjølemo,Mandal,Mandal,1002,NO,1757.7,1797.15,58.120242,7.52813,7.525,58.125,NRT,calibrated,07/10/2013 00:00',01/01/2024 00:00',07/10/2013 00:00',0.67766,0.0728568,KGEJSD,Europe,SwedenNorway,0.0
1123,Junkerdalselv,Saltelva,Junkerdal,1002,NO,421.98,429.24,66.814798,15.410688,15.425,66.825,NRT,calibrated,07/10/2013 00:00',01/01/2024 00:00',07/10/2013 00:00',0.585755,0.0490952,KGEJSD,Europe,SwedenNorway,0.1712101876877092
1128,Hugdal bru,Gaula (Melhus),Sogna,1002,NO,546.17,538.8,62.994066,10.246435,10.225,62.975,NRT,calibrated,07/10/2013 00:00',01/01/2024 00:00',07/10/2013 00:00',0.613456,0.0318295,KGEJSD,Europe,SwedenNorway,0.0
1131,Holmfoss i Numedalslågen,Lagen,Lagen,1002,NO,5201.8,5211.09,59.189643,9.993582,10.025,59.175,NRT,calibrated,07/10/2013 00:00',01/01/2024 00:00',07/10/2013 00:00',0.782685,0.0378177,KGEJSD,Europe,SwedenNorway,0.0
1132,Håkkadalbrua,Byaelva,Byaelva,1002,NO,2141.01,2089.33,64.020191,11.503843,11.525,64.025,NRT,calibrated,07/10/2013 00:00',01/01/2024 00:00',07/10/2013 00:00',0.827257,0.0330666,KGEJSD,Europe,SwedenNorway,0.0
1140,Hegra bru,Stjørdal,Stjørdal,1002,NO,1873.48,1877.6,63.461762,11.1156,11.125,63.475,NRT,calibrated,07/10/2013 00:00',01/01/2024 00:00',07/10/2013 00:00',0.532781,0.0839519,KGEJSD,Europe,SwedenNorway,0.0
1141,Heisel,Otra,Otra,1002,NO,3687.09,3688.4,58.247549,7.951435,7.975,58.275,NRT,calibrated,07/10/2013 00:00',01/01/2024 00:00',07/10/2013 00:00',0.387259,0.0921816,KGE,Europe,SwedenNorway,0.0
1145,Daugavpils,Daugava,Daugava,1027,LV,64500.0,64524.06,55.8613,26.5211,26.575,55.875,efas,calibrated,01/01/1990 00:00',01/01/2024 00:00',30/09/2000 00:00',0.884586,0.0216209,KGEJSD,Europe,DenmarkFinlandDaugavaNeris,0.0
1148,Jēkabpils,Daugava,Daugava,1027,LV,70500.0,70527.0,56.4976,25.8915,25.975,56.475,efas,calibrated,02/01/2014 00:00',01/01/2024 00:00',02/01/2014 00:00',0.868812,0.0332104,KGEJSD,Europe,DenmarkFinlandDaugavaNeris,0.0
1152,Sīļi,Daugava,Dubna,1027,LV,2060.0,2023.28,56.3414,26.3459,26.325,56.325,efas,calibrated,02/01/2014 00:00',01/01/2024 00:00',02/01/2014 00:00',0.81877,0.0586682,KGEJSD,Europe,DenmarkFinlandDaugavaNeris,0.0
1153,Lubāna,Daugava,Aiviekste,1027,LV,6510.0,6710.84,56.9057,26.7151,26.775,56.925,efas,calibrated,02/01/2014 00:00',01/01/2023 00:00',02/01/2014 00:00',0.805024,0.0476799,KGEJSD,Europe,DenmarkFinlandDaugavaNeris,0.0
1154,Aiviekstes HES,Daugava,Aiviekste,1027,LV,8640.0,8697.71,56.6393,25.9316,26.025,56.675,efas,calibrated,02/01/2014 00:00',01/01/2024 00:00',02/01/2014 00:00',0.833215,0.0295081,KGEJSD,Europe,DenmarkFinlandDaugavaNeris,0.0
1155,Lielpeči,Daugava,Ogre,1027,LV,1660.0,1714.46,56.8051,24.7153,24.775,56.825,efas,calibrated,02/01/2014 00:00',01/01/2024 00:00',02/01/2014 00:00',0.77686,0.0375153,KGEJSD,Europe,DenmarkFinlandDaugavaNeris,0.0
1158,Sant Sadurni d Anoia,Llobregat,Anoia,1037,ES,720.03,694.76,41.443497,1.788188,1.775,41.475,NRT,calibrated,16/09/2015 00:00',01/01/2024 00:00',16/09/2015 00:00',0.693087,0.0620936,KGEJSD,Europe,SpainPortugal,0.0
1159,Castellbell i el Vilar,Llobregat,Llobregat,1037,ES,3326.85,3383.98,41.646562,1.858397,1.875,41.675,NRT,calibrated,16/09/2015 00:00',01/01/2024 00:00',16/09/2015 00:00',0.772278,0.0978866,KGEJSD,Europe,SpainPortugal,0.0
1163,Balsareny,Llobregat,Llobregat,1037,ES,1022.12,1010.33,41.859536,1.880218,1.875,41.875,NRT,calibrated,16/09/2015 00:00',01/01/2024 00:00',16/09/2015 00:00',0.616132,0.0619425,KGEJSD,Europe,SpainPortugal,0.0
1168,Sant Vicenc dels Horts (Canal de la Dreta),Llobregat,Llobregat,1037,ES,4842.0,4867.08,41.388761,2.022151,2.025,41.425,NRT,calibrated,16/06/2016 00:00',01/01/2024 00:00',16/06/2016 00:00',0.688866,0.080618,KGEJSD,Europe,SpainPortugal,0.0
1172,Ciudad Rodrigo,Douro,Agueda,1039,ES,1087.92,1107.0,40.603763,-6.563164,-6.525,40.575,NRT,calibrated,27/05/2014 00:00',01/01/2024 00:00',27/05/2014 00:00',0.71507,0.0389996,KGEJSD,Europe,SpainPortugal,0.0
1174,Peral De Arlanza,Douro,Arlanza,1039,ES,2420.85,2459.98,42.0789,-4.07942,-4.075,42.075,NRT,calibrated,27/05/2014 00:00',01/01/2024 00:00',27/05/2014 00:00',0.835319,0.0509755,KGEJSD,Europe,SpainPortugal,0.0
1175,Celada del Camino,Douro,Arlanzon,1039,ES,1689.99,1761.53,42.2552,-3.92801,-3.875,42.275,NRT,calibrated,27/05/2014 00:00',01/01/2024 00:00',27/05/2014 00:00',0.669883,0.0585348,KGEJSD,Europe,SpainPortugal,0.0
1178,Palencia,Douro,Carrion,1039,ES,2255.19,2306.06,42.363,-4.55829,-4.575,42.075,NRT,calibrated,27/05/2014 00:00',01/01/2024 00:00',27/05/2014 00:00',0.7447,0.0178134,KGEJSD,Europe,SpainPortugal,0.0
1179,Garray-Soria,Douro,Douro,1039,ES,1458.86,1382.49,41.797096,-2.454961,-2.425,41.775,NRT,calibrated,27/05/2014 00:00',01/01/2024 00:00',27/05/2014 00:00',0.607845,0.0942151,KGEJSD,Europe,SpainPortugal,0.0
1180,San Miguel del Pino,Douro,Douro,1039,ES,36595.1,36757.61,41.504113,-4.930566,-4.925,41.525,NRT,calibrated,27/05/2014 00:00',01/01/2024 00:00',27/05/2014 00:00',0.843574,0.0436174,KGEJSD,Europe,SpainPortugal,0.0
1185,Castropepe,Douro,Esla,1039,ES,6781.84,6971.06,41.974286,-5.636551,-5.625,41.975,NRT,calibrated,27/05/2014 00:00',01/01/2024 00:00',27/05/2014 00:00',0.784939,0.0194737,KGEJSD,Europe,SpainPortugal,0.0
1188,Cordovilla,Douro,Pisuerga,1039,ES,4218.4,4238.26,42.1305,-4.249515,-4.225,42.125,NRT,calibrated,27/05/2014 00:00',01/01/2024 00:00',27/05/2014 00:00',0.739882,0.0557275,KGEJSD,Europe,SpainPortugal,0.0
1191,Secos,Douro,Porma,1039,ES,950.43,998.57,42.601108,-5.4051,-5.425,42.575,NRT,calibrated,27/05/2014 00:00',01/01/2024 00:00',27/05/2014 00:00',0.715766,0.01862,KGEJSD,Europe,SpainPortugal,0.0
1192,Rabal,Douro,Tamega,1039,ES,776.0,713.84,41.848632,-7.435275,-7.425,41.875,NRT,calibrated,27/05/2014 00:00',01/01/2024 00:00',27/05/2014 00:00',0.838098,0.0621282,KGEJSD,Europe,SpainPortugal,0.0
