efas,name,basin,river,provider,iso,DrainageArea_prov,DrainageArea_LDD,lat,long,LISFLOOD_X,LISFLOOD_Y,GlofasID,note,oldnotes,SourceGlo,GlofasV5
4,Barby,Elbe,Elbe,1004,DE,94060,93699.47,51.984836,11.882244,11.875,52.025, , , ,NRT,calibrated
5,Wittenberg / Lutherstadt,Elbe,Elbe,1004,DE,61879,60938.53,51.856531,12.646309,12.625,51.875, , , ,NRT,calibrated
6,Malliss OP,Elbe,Muritz-Elde,1004,DE,2879,3161.95,53.190627,11.345254,11.425,53.175, ,flow changes in 1992 regulated,unrealistic low discharge same for daily data  possibly wrong location/low discharge but seems OK,NRT,calibrated
9,Rathenow UP,Elbe,Lower Havel,1004,DE,19288.46,18271.3,52.607446,12.321014,12.325,52.625, ,flow ok, ,efas,calibrated
11,Calbe Grizehne,Elbe,Saale,1004,DE,23719,23560.46,51.916414,11.812211,11.825,51.925, , , ,HIST,calibrated
12,Tangermuende,Elbe,Elbe,1004,DE,97780,97683.92,52.541308,11.978054,11.975,52.575, , , ,HIST,calibrated
14,Wittenberge,Elbe,Elbe,1004,DE,123532,122945.86,52.985531,11.759441,11.775,52.975, ,flow ok, ,NRT,calibrated
17,Havelberg Stadt,Elbe,Lower Havel waterway,1004,DE,23858,23639.57,52.824075,12.07804,12.075,52.825, ,flow ok gap from 2011 to 2013,Outliers exclude 2013 flood  negative values removed with qc /minor outliers,NRT,calibrated
18,Halle-Trotha UP,Elbe,Saale,1004,DE,17988,17857.22,51.514254,11.954551,11.925,51.525, ,flow ok gap from 2011 to 2013, ,NRT,calibrated
19,Neu Darchau,Elbe,Elbe,1004,DE,131950,131611.79,53.232262,10.8888,10.975,53.225, ,flow ok, ,NRT,calibrated
26,Hohensaaten-Finow,Oder,Oder,1004,DE,109564,111216.01,52.864739,14.141123,14.125,52.825, ,flow ok gap from 2011 to 2013, ,HIST,calibrated
27,Leun (Neu),Rhine,Lahn,1004,DE,3571,3632.23,50.545134,8.355275,8.375,50.525, ,flow ok gap from 2011 to 2013, ,NRT,calibrated
28,Maxau,Rhine,Rhine,1004,DE,50196,50777.11,49.038957,8.305614,8.275,49.025, ,flow ok gap from 2011 to 2013 many small gaps 2014, ,NRT,calibrated
31,Frankfurt-Osthafen,Rhine,Main,1004,DE,24764,24726.77,50.105711,8.715027,8.725,50.125, ,flow ok, ,NRT,calibrated
33,Plochingen,Rhine,Neckar,1004,DE,3995,3948.83,48.707411,9.419239,9.425,48.725, ,flow ok gap from 2011 to 2013 many small gaps 2014, ,NRT,calibrated
36,Kaub,Rhine,Rhine,1004,DE,103488,103792.93,50.085407,7.764994,7.775,50.075, ,flow ok gap from 2011 to 2013 many small gaps 2014, ,HIST,calibrated
38,Cochem,Rhine,Moselle,1004,DE,27088,27071.3,50.143322,7.16831,7.175,50.125, ,flow ok gap from 2011 to 2013 many small gaps 2014, ,NRT,calibrated
40,Koeln,Rhine,Rhine,1004,DE,144231.54,144451.78,50.936914,6.963322,6.975,50.925, ,flow ok gap from 2011 to 2013 many small gaps 2014,Few outliers removed with qc close to 58 and 62/close to 58 and 62,HIST,calibrated
42,Kalkofen (Neu),Rhine,Lahn,1004,DE,5304,5313.59,50.317832,7.889898,7.925,50.325, ,flow ok gap from 2011 to 2013 many small gaps 2014, ,NRT,calibrated
45,Worms,Rhine,Rhine,1004,DE,68936,69519.79,49.631858,8.377548,8.375,49.675, ,flow ok gap from 2011 to 2013, ,NRT,calibrated
47,Ruhrort,Rhine,Rhine,1004,DE,153176,153667.78,51.455309,6.727942,6.725,51.475, ,flow ok gap from 2011 to 2013 many small gaps 2014, ,HIST,calibrated
51,St.Arnual,Rhine,Saar,1004,DE,3945,3960.22,49.214863,7.022796,7.025,49.225, ,flow ok, ,NRT,calibrated
58,Düsseldorf,Rhine,Rhine,1004,DE,147680.43,147773.77,51.225463,6.769909,6.725,51.225, ,flow ok, ,NRT,calibrated
59,Steinbach,Rhine,Main,1004,DE,17914.2,17964.73,50.009961,9.60371,9.625,50.025, ,flow ok gap from 2011 to 2013 many small gaps 2014, ,NRT,calibrated
60,Fremersdorf,Rhine,Saar,1004,DE,6983,7016.23,49.408914,6.648444,6.675,49.375, ,flow ok gap from 2011 to 2013 many small gaps 2014, ,NRT,calibrated
62,Bonn,Rhine,Rhine,1004,DE,140901,141121.85,50.736364,7.10807,7.125,50.725, ,flow ok, ,NRT,calibrated
63,Speyer,Rhine,Rhine,1004,DE,53131,53071.72,49.323786,8.44876,8.475,49.275, ,flow ok gap from 2011 to 2013 many small gaps 2014, ,NRT,calibrated
73,Zwickau-Poelbitz,Elbe,Zwickau Mulde,1007,DE,1030,1025.17,50.740921,12.493595,12.475,50.725, ,flow ok, ,NRT,calibrated
75,Wechselburg 1,Elbe,Zwickau Mulde,1007,DE,2107,2142.26,51.006848,12.772535,12.775,51.025, ,flow ok,close to 80/close to 80,NRT,calibrated
78,Torgau,Elbe,Elbe,1007,DE,55211,55441.79,51.553713,13.01012,13.025,51.575, ,flow ok, ,HIST,calibrated
79,Lichtenwalde 1,Elbe,Zschopau,1007,DE,1575,1573.39,50.886191,13.020015,13.025,50.875, ,flow ok gap 2011 12 13 15 18 a 21, ,NRT,calibrated
81,Kleindalzig,Elbe,White Elster,1007,DE,2891,2849.03,51.210414,12.291583,12.275,51.225, ,flow ok artificial chanel and lake above, ,NRT,calibrated
83,Bad Dueben 1,Elbe,United Mulde,1007,DE,6171,6188.68,51.590779,12.580715,12.575,51.575, ,flow ok gap 2011 12 13 15 18 a 21, ,NRT,calibrated
85,Boehlen 1,Elbe,Pleisse,1007,DE,1359,1289.89,51.211917,12.387218,12.375,51.225, ,flow ok gap 2011 12 13 15 18 a 21, ,NRT,calibrated
86,Neuwiese,Elbe,Blacl Elster,1007,DE,669,679.12,51.476458,14.197033,14.225,51.475, ,flow ok gap 2011 12 13 15 18 a 21, ,NRT,calibrated
89,Dresden,Elbe,Elbe,1007,DE,53096,53051.05,51.054481,13.738831,13.725,51.075, ,flow ok, ,HIST,calibrated
93,Spreewitz,Elbe,Spree,1007,DE,2033,2096.91,51.510861,14.404286,14.425,51.525, ,flow ok gap 2011 12 13 15 18 a 21, ,NRT,calibrated
94,Goerlitz,Oder,Lusatian Neisse,1007,DE,1621,1642.46,51.161195,14.993189,14.975,51.125, ,flow ok gap 2011 12 13 15 18 a 21, ,NRT,calibrated
95,Gornja Radgona,Danube,Mur,1005,SI,10197.2,10411.5,46.6811,15.9956,16.025,46.675, ,flow ok gap 2013 and 2019, ,NRT,calibrated
96,Ptuj,Danube,Drava,1005,SI,13664.1,13778.92,46.4169,15.8675,15.825,46.425, ,flow ok, ,NRT,calibrated
98,Radovljica,Danube,Sava,1005,SI,907.97,919.49,46.34,14.1654,14.175,46.325, ,flow ok gap 2013 and 2019, ,NRT,calibrated
106,Veliko Širje,Danube,Savinja,1005,SI,1841.9,1798.91,46.0919,15.1924,15.225,46.075, ,flow ok gap 2013 and 2015, ,NRT,calibrated
107,Podbočje,Danube,Krka,1005,SI,2238.12,1793.17,45.8644,15.4555,15.525,45.875, , , ,NRT,calibrated
108,Solkan,Soca/Isonzo,Soca,1005,SI,1572.8,1437.89824,45.98162,13.65517,13.625,45.975, ,flow ok, ,NRT,calibrated
109,Bollendorf,Rhine,Saar,1010,DE,3222,3277.75,49.850921,6.359171,6.325,49.825, ,some gaps in 2012 but flow ok, ,NRT,calibrated
113,Martinstein,Rhine,Nahe,1010,DE,1468,1501.41,49.803795,7.536,7.525,49.825, ,flow ok gap 2013 and 2016 17 18 19 20, ,NRT,calibrated
114,Odenbach,Rhine,Glan,1010,DE,1085.53,1067.25,49.68892,7.652247,7.675,49.675, ,flow ok gap 2013 and 2016 17 18 19 20, ,NRT,calibrated
117,Bad Vilbel,Rhine,Nidda,1009,DE,1619.3,1701.2,50.182246,8.741063,8.725,50.175, ,flow ok, ,NRT,calibrated
118,Hanau,Rhine,Kinzig,1009,DE,921.2,911.78,50.132084,8.94581,8.975,50.175, ,flow ok, ,NRT,calibrated
120,Marburg,Rhine,Lahn,1009,DE,1666.2,1665.38,50.798714,8.764476,8.775,50.775, ,flow ok, ,NRT,calibrated
125,Kemihaara,Kemijoki,Kemijoki,1011,FI,8538,8560.75,67.198533,27.785512,27.825,67.175, , , ,efas,calibrated
128,Vikajärvi  luusua,Kemijoki,Raudanjoki,1011,FI,3017,2906.64,66.621822,26.219519,26.225,66.625, , , ,efas,calibrated
130,Ounasjoki. Köngäs,Kemijoki,Ounasjoki,1011,FI,4488,4531.83,67.878636,24.844374,24.875,67.925, , , ,efas,calibrated
131,Unari  luusua,Kemijoki,Meltausjoki,1011,FI,1198,1118.21,67.130471,25.747274,25.775,67.125, , , ,efas,calibrated
132,Ounasjoki. Marraskoski,Kemijoki,Ounasjoki,1011,FI,12303,12172.5,66.798477,25.420245,25.425,66.825, , , ,NRT,calibrated
133,Valajaskoski,Kemijoki,Kemijoki,1011,FI,47425,47443.17,66.424052,25.540257,25.475,66.425, ,reservoir outlet  NOT in glofas,low quality data oscillations in low flow/Regulated,NRT,calibrated
134,Isohaara,Kemijoki,Kemijoki,1011,FI,50683,50998.22,65.792669,24.545286,24.575,65.825, ,reservoir outlet  NOT in glofas, ,efas,calibrated
135,Muonionjoki. Kaaresuvanto,Torne,Muonio,1011,FI,5732,5891.58,68.442281,22.494588,22.475,68.425, , , ,NRT,calibrated
136,Muonionjoki. Muonio,Torne,Muonio,1011,FI,9259,9297.14,67.945748,23.660143,23.625,67.975, , , ,NRT,calibrated
137,Tengeliönjoki. Haapakoski,Torne,Tengelionjoki,1011,FI,3089,2976.77,66.381335,23.783981,23.725,66.425, ,flow changes in 1988 due to reserv NOT in glofas, ,efas,calibrated
138,Inarijoki. Karigasniemi,Tana,Anarjohka,1011,FI,3133,2997.81,69.395731,25.844885,25.825,69.375, ,flow ok, ,NRT,calibrated
139,Onnelansuvanto,Tana,Tana,1011,FI,10864,10784.83,69.911992,27.026975,26.975,69.925, ,flow ok, ,NRT,calibrated
140,Utsjoki. Patoniva,Tana,Utsjoki,1011,FI,1520,1529.35,69.783662,26.999533,27.025,69.775, ,flow ok remove oultier in 2021,-/removed Q data from 18-2-2021 to 10-03-21,NRT,calibrated
141,Kettujoki,Paatsjoki,Kettujoki,1011,FI,2215,2264.18,68.919106,26.74754,26.775,68.925, , , ,efas,calibrated
142,Juutuanjoki,Paatsjoki,Juutuanjoki,1011,FI,5160,5168.96,68.889188,26.925191,26.975,68.925, ,flow ok, ,NRT,calibrated
143,Ivalojoki. Pajakoski,Paatsjoki,Ivalo,1011,FI,3345,3455.16,68.554588,27.274471,27.275,68.575, ,flow ok, ,NRT,calibrated
144,Kaitakoski,Paatsjoki,Paatsjoki,1011,FI,14575,14645.26,68.908733,28.448919,28.475,68.925, , , ,efas,calibrated
145,Kallio 2,Torne,Muonio,1014,SE,14477.1,14370.88,67.224893,23.543048,23.575,67.225, , , ,NRT,calibrated
148,Granåker,Ume,Vindel,1014,SE,11846.37,11793.33,64.239979,19.666241,19.725,64.225, ,flow ok, ,NRT,calibrated
149,Sorsele2,Ume,Vindel,1014,SE,6054.39,6052.83,65.542207,17.508312,17.475,65.525, ,gap in 2013 but flow ok, ,NRT,calibrated
151,Guben 2,Oder,Lusatian Neisse,1015,DE,4080,4127.1,51.969154,14.706919,14.725,51.975, ,flow ok, ,HIST,calibrated
153,Lobith,Rhine,Rhine,1008,NL,160800,159556.62,51.844444,6.108333,6.075,51.875, ,big gap try 2013 and 2015 to 2021,-/Rhine outlet,NRT,calibrated
155,Fischerau / Ager,Danube,Ager,1013,AT,1256.1,1204.05,48.085815,13.838047,13.825,48.075, , ,small oscillations and change in hydrometri zero/Regulated,NRT,calibrated
156,Achleiten / Donau,Danube,Danube,1013,AT,76653.3,76461.18,48.582691,13.503336,13.525,48.575, ,only remove data before 2010 outlier 2014,Moved to better reproduce confluence/keeping it for routing,NRT,calibrated
158,Kienstock,Danube,Danube,1013,AT,95970,95824.46,48.382792,15.46122,15.525,48.375, , , ,NRT,calibrated
159,Korneuburg,Danube,Danube,1013,AT,101536.6,101383.68,48.329485,16.332121,16.325,48.325, ,only, ,NRT,calibrated
160,Linz,Danube,Danube,1013,AT,79490.1,79422.03,48.30692,14.284912,14.325,48.275, , ,old data/Regulated,efas,calibrated
161,Wildungsmauer,Danube,Danube,1013,AT,103992.7,103330.24,48.114803,16.804302,16.875,48.125, ,only, ,NRT,calibrated
164,Lavamünd Ort,Danube,Drava,1013,AT,11051.8,11056.11,46.64062,14.942619,14.825,46.625, , ,dams  large oscillations change in hydrometric zero/Mildly regulated with change in low flow,NRT,calibrated
165,Lienz-Peggetz,Danube,Drava,1013,AT,1876.2,1884.39,46.824539,12.784082,12.775,46.825, ,influenced by reserv only,oscillations  negative values  zeros removed with qc close to 166/Negative values,NRT,calibrated
168,Admont (Enns),Danube,Enns,1013,AT,2637.5,2642.15,47.581187,14.461733,14.425,47.575, ,influenced by reserv only remove july 2016 to end 2017, ,HIST,calibrated
169,Steyr (Ortskai),Danube,Enns,1013,AT,5915.4,6123.52,48.043318,14.424931,14.425,48.025, ,influenced by reserv only,oscillations  change in low flow could use hist_24/Possibly regulated,NRT,calibrated
173,Federaun,Danube,Gail,1013,AT,1304.9,1405.21,46.569332,13.814816,13.775,46.575, ,remove early 2011 2012 and early 2015, ,NRT,calibrated
175,Gumisch,Danube,Gurk,1013,AT,2555.4,2269.09,46.606288,14.478061,14.475,46.625, ,flow ok,-/wrong location it should be moved downstream,NRT,calibrated
176,Launsdorf,Danube,Gurk,1013,AT,1243.1,1376.11,46.760439,14.476932,14.525,46.725, ,flow ok, ,NRT,calibrated
180,Jenbach-Rotholz,Danube,Inn,1013,AT,7230.7,7210.88,47.388857,11.789238,11.775,47.375, ,influenced by reserv only, ,NRT,calibrated
183,Magerbach,Danube,Inn,1013,AT,5118.8,5062.43,47.258747,10.874705,10.875,47.275, ,influenced by reserv only, ,NRT,calibrated
187,Lienz,Danube,Isel,1013,AT,1198.7,1183.98,46.831632,12.766335,12.725,46.825, ,influenced by reserv only, ,NRT,calibrated
188,Stiefern,Danube,Kamp,1013,AT,1493.3,1456.49,48.534688,15.690083,15.675,48.575, ,influenced by reserv only not sure end 2021 outlier, ,NRT,calibrated
189,Lechaschau,Danube,Lech,1013,AT,1012.2,1093.09,47.497015,10.709677,10.675,47.475, , , ,HIST,calibrated
190,Deutsch Brodersdorf (Straßenbrücke),Danube,Leitha,1013,AT,NULL,2104.83,47.937903,16.477205,16.475,47.925, , ,close to 191/close to 191,efas,calibrated
192,Spittal (Fasan),Danube,Lieser,1013,AT,1035.5,1037.2,46.807338,13.494837,13.475,46.825, , , ,NRT,calibrated
195,Kolbnitz a. d. Tauernbahn VHP,Danube,Moll,1013,AT,1043.8,1057.74,46.875108,13.302641,13.275,46.875, ,influenced by reserv only, ,NRT,calibrated
200,Mellach,Danube,Mur,1013,AT,7295.5,7233.47,46.902063,15.492877,15.475,46.925, , , ,NRT,calibrated
202,St.Georgen ob Judenburt,Danube,Mur,1013,AT,2367.5,2361.65,47.211775,14.499123,14.425,47.175, ,only remove nov 2015 to march 2014 then first moths 2012 and august 2016 to 2017,close to 198/close to 198,efas,calibrated
207,Siezenheim,Danube,Saalach,1013,AT,1139.1,1130.32,47.811555,12.974216,12.925,47.775, , , ,NRT,calibrated
212,Werfen,Danube,Saalach,1013,AT,2953.2,2924.84,47.479884,13.191103,13.175,47.475, ,influenced by reserv only, ,NRT,calibrated
213,Leibnitz,Danube,Sulm,1013,AT,1102.5,1103.43,46.771039,15.534549,15.525,46.775, ,only remove 2011 aug to gap 2012 remove first months of 2015 and aug 2014 to feb 2015, ,NRT,calibrated
214,Raabs an der Thaya,Danube,Thaya,1013,AT,1405.8,1548.18,48.844976,15.499183,15.525,48.825, , , ,NRT,calibrated
216,Wels-Lichtenegg,Danube,Traun,1013,AT,3387.1,3495.22,48.141089,13.995787,14.025,48.125, , ,low quality data outliers in low flow/some issues with low flow that goes to zero,NRT,calibrated
221,Greimpersdorf,Danube,Ybbs,1013,AT,1116.6,1142.86,48.110874,14.891028,14.875,48.125, , , ,NRT,calibrated
223,Hart im Zillertal,Danube,Ziller,1013,AT,1094.7,1138.07,47.346304,11.862502,11.875,47.325, ,influenced by reserv only,large oscillations low quality  same for daily data/Regulated,NRT,calibrated
225,Gisingen,Rhine,Ill,1013,AT,1281,1308.25,47.260356,9.578855,9.625,47.275, ,flow influenced by reserv, ,NRT,calibrated
226,Bangs,Rhine,Rhine,1013,AT,4647.9,4800.11,47.272002,9.533689,9.525,47.225, ,flow influenced by reserv, ,NRT,calibrated
228,Bezdan,Danube,Danube,1020,RS,210250,209116.18,45.854141,18.859776,18.825,45.875, ,only remove flatliner 2011, ,NRT,calibrated
231,Kusic,Danube,Nera,1020,RS,1337,1491.3,44.870834,21.485225,21.575,44.875, , , ,NRT,calibrated
232,Zajecar,Danube,Beli Timok,1020,RS,2150,2154.13,43.892142,22.293443,22.325,43.875, , flow ok, ,NRT,calibrated
234,Jamena,Danube,Sava,1020,RS,64073,62328.49,44.877743,19.084006,19.125,44.875, ,CLEAN remove flatliners 2009, ,NRT,calibrated
235,Sremaska Mitrovica,Danube,Sava,1020,RS,87996,85051.73,44.965672,19.60019,19.625,44.975, ,only remove flatliners 2011, ,NRT,calibrated
236,Radalj,Danube,Drina,1020,RS,17490,17847.18,44.41907,19.14799,19.125,44.425, ,flow influenced by reserv NOT in glofas, ,HIST,calibrated
237,Beli Brod,Danube,Kolubara,1020,RS,1896,1863.94,44.371198,20.199508,20.225,44.375, ,only flow ok, ,NRT,calibrated
239,Bagrdan,Danube,Velika Morava,1020,RS,33446,33437,44.070498,21.195798,21.275,44.075, ,remove flatliner in 2011, ,NRT,calibrated
240,Kratovska stena,Danube,West Morava,1020,RS,3077,3177.39,43.87126,20.118569,20.125,43.875, ,remove flatliner in 2011, ,NRT,calibrated
242,Jasika,Danube,West Morava,1020,RS,14721,14721.81,43.608124,21.295077,21.275,43.625, ,remove flatliner in 2011, ,NRT,calibrated
244,Grdelica,Danube,Juzna Morava,1020,RS,3782,3763.54,42.890972,22.061887,22.075,42.925, ,remove flatliner in 2011,oscillations  outliers removed with qc close to 243/close to 243,NRT,calibrated
245,Korvingrad,Danube,Juzna Morava,1020,RS,9396,9309.73,43.219521,21.838303,21.825,43.225, ,remove flatliner in 2011, ,NRT,calibrated
246,Mojsinje,Danube,Juzna Morava,1020,RS,15390,15535.94,43.63055,21.485787,21.525,43.625, ,remove flatliner in 2011, ,NRT,calibrated
247,Doljevac,Danube,Toplica,1020,RS,2052,2055.29,43.20241,21.830671,21.825,43.175, ,remove flatliner in 2011, ,NRT,calibrated
248,Pirot,Danube,Nisava,1020,RS,1745,1813.68,43.159234,22.588755,22.625,43.125, ,remove flatliner in 2011, ,NRT,calibrated
249,Nis,Danube,Nisava,1020,RS,3870,4025.15,43.326211,21.90196,21.975,43.325, ,remove flatliner in 2011, ,NRT,calibrated
257,Lopatnica lakat,Danube,Ibar,1020,RS,7818,7946.5,43.659922,20.563451,20.575,43.675, ,CLEAN remove flatliner 2015,-/Discontinued but keeping it for because no alternative  new station Mataruska Banja immediately downstream is now operational,NRT,calibrated
261,Bogojevo,Danube,Danube,1020,RS,251593,252057.76,45.53004,19.078749,19.075,45.525, ,flow ok, ,HIST,calibrated
263,Markovicevo,Danube,Brzava,1020,RS,1111,1132.13,45.326954,21.03038,21.075,45.325, ,remove flatliner in 2011, ,NRT,calibrated
264,Ljubicevski most,Danube,Velika Morava,1020,RS,37320,37456.86,44.585387,21.131837,21.125,44.575, ,flatliner in 2011 it seems that all stations in the river have a flatliner in the same period  trasmission error?  no need to cleanit is short issue EHDCC10829, ,NRT,calibrated
267,Lot,Scheldt,Zenne,1022,BE,659.24,708.39,50.765746,4.279647,4.275,50.775, ,flow ok, ,HIST,calibrated
270,Menen,Scheldt,Leie,1022,BE,2986.2,2914.18,50.791197,3.126709,3.125,50.775, ,flow influenced by reserv, ,NRT,calibrated
272,Moravský Sv. Ján,Danube,Great Morava,1018,SK,24129.3,24093.88,48.602278,16.935429,16.925,48.625, , , ,HIST,calibrated
273,Devín,Danube,Danube,1018,SK,131244,130613.38,48.173299,16.977317,16.975,48.175, , ,close to 1895/close to 1895,HIST,calibrated
274,Liptovský Mikuláš,Danube,Vakh,1018,SK,1107.21,1158.54,49.086364,19.603513,19.625,49.075, , , ,HIST,calibrated
277,Strečno,Danube,Vakh,1018,SK,5453.25,5436.19,49.172511,18.864047,18.875,49.125, , ,large oscillations/Regulated,HIST,calibrated
278,Šaľa,Danube,Vakh,1018,SK,11217.61,10719.11,48.161217,17.881949,17.825,48.175, , influenced by reserv NOT in glofas,low quality data  same for daily data  large oscillations/Regulated,HIST,calibrated
279,Nitrianska Streda,Danube,Nitra,1018,SK,2093.71,2229.76,48.523948,18.172555,18.175,48.525, , flow ok, ,HIST,calibrated
281,Komárno,Danube,Danube,1018,SK,151961.6,151454,47.754313,18.127812,18.075,47.775, , , ,HIST,calibrated
282,Banská Bystrica,Danube,Hron,1018,SK,1766.48,1838.09,48.731088,19.140372,19.125,48.725, , flow ok, ,HIST,calibrated
283,Brehy,Danube,Hron,1018,SK,3821.38,3848.51,48.406726,18.64624,18.675,48.425, , flow ok, ,HIST,calibrated
284,Slovenské Ďarmoty,Danube,Ipel,1018,SK,2768,2724.15,48.087161,19.297626,19.325,48.075, , flow ok, ,HIST,calibrated
285,Lenártovce,Danube,Slana,1018,SK,1829.65,1905.98,48.30507,20.313416,20.325,48.325, , flow ok, ,HIST,calibrated
286,Vlkyňa,Danube,Rimava,1018,SK,1377.41,1398.29,48.285404,20.301721,20.275,48.325, , flow ok, ,HIST,calibrated
288,Margecany,Danube,Hornád,1018,SK,1132.78,1078.98,48.909548,20.972338,20.975,48.925, , flow ok, ,HIST,calibrated
289,Košické Olšany,Danube,Torysa,1018,SK,1298.3,1279.91,48.733426,21.336383,21.325,48.725, , flow ok, ,HIST,calibrated
290,Humenné,Danube,Laborec,1018,SK,1272.4,1360.6,48.928054,21.912382,21.925,48.925, , , ,HIST,calibrated
293,Hanušovce nad Toplou,Danube,Topla,1018,SK,1050.05,1154.11,49.032598,21.519206,21.525,49.025, , , ,HIST,calibrated
295,Akslen,Glomma,Bovri,1002,NO,796.26,811.77,61.802936,8.44987,8.425,61.775, ,flow ok, ,NRT,calibrated
296,Atnasjoe,Glomma,Atna,1002,NO,463.2,526.63,61.851939,10.222119,10.175,61.875, ,flow ok, ,NRT,calibrated
298,Bergheim,Drammen,Hallingdalselva,1002,NO,4248.54,4232.94,60.471919,9.231315,9.275,60.425, ,flow ok, ,NRT,calibrated
301,Eide,Glomma,Lagen,1002,NO,7969.43,7788.69,61.613981,9.722482,9.725,61.625, ,flow ok, ,NRT,calibrated
302,Elverum,Glomma,Glomma,1002,NO,15447.49,15600.61,60.874212,11.560652,11.525,60.925, ,flow ok, ,NRT,calibrated
303,Etna,Drammen,Etna,1002,NO,570.17,571.33,60.951902,9.626174,9.625,60.925, ,flow ok, ,NRT,calibrated
309,Knappom,Glomma,Flisa,1002,NO,1646,1728.17,60.64117,12.047125,12.125,60.675, ,flow ok, ,NRT,calibrated
310,Lalm,Glomma,Otta,1002,NO,3982.36,3989.07,61.817372,9.274604,9.225,61.825, ,CLEAN  flatliner in 2019 2017,-/remove Q data from 13-10-2018  27-03-2019,NRT,calibrated
311,Losna,Glomma,Lagen,1002,NO,11212.94,11186.86,61.333385,10.277532,10.275,61.325, ,flow ok, ,NRT,calibrated
312,Mjøndalen bru,Drammen,Drammen,1002,NO,16992.02,17000.22,59.752922,10.007267,10.025,59.775, , , ,HIST,calibrated
315,Nye Stai,Glomma,Glomma,1002,NO,8950,9029.04,61.466519,11.042726,11.075,61.525, ,flow ok, ,NRT,calibrated
316,Ofossen,Glomma,Otta,1002,NO,1584.73,1564.71,61.882597,8.313763,8.275,61.875, ,flow ok many gaps, ,NRT,calibrated
317,Rosten,Glomma,Lagen,1002,NO,1833.91,1732.34,61.858567,9.405153,9.425,61.825, ,flow ok, ,NRT,calibrated
320,Skarnes,Glomma,Glomma,1002,NO,20296.2,20572.4,60.254316,11.67747,11.675,60.275, ,not sure if flatliner in 2011, ,NRT,calibrated
323,Strømstøa,Drammen,Adalselva,1002,NO,4631.48,4732.85,60.314604,10.138882,10.075,60.325, ,some reserv influence but ok, ,NRT,calibrated
327,Veliko Selo,Danube,Mlava,1020,RS,1124,1153.22,44.49455,21.299877,21.325,44.475, ,flatliner in 2011 it seems that all stations in the river have a flatliner in the same period  trasmission error?  no need to cleanit is short issue EHDCC10829, ,NRT,calibrated
328,Monte Da Vinha,Guadiana,Guadiana,1023,PT,49865,49901.83,38.8321,-7.085033,-7.125,38.825, ,remove 1997 and outlier 2013, ,efas,calibrated
330,Almourol,Tagus,Tagus,1023,PT,67482,67045.49,39.461,-8.375,-8.425,39.475, , , ,efas,calibrated
332,Martina,Danube,Inn,1003,CH,1945,1893.96,46.885786,10.465434,10.475,46.875, ,flow changes in 2022, ,NRT,calibrated
334,Bellinzona,Po,Ticino,1003,CH,1515,1517.63,46.20877,9.03202,8.975,46.175, ,flow ok, ,NRT,calibrated
335,Bern. Schönau,Rhine,Aare,1003,CH,2945,3021.71,46.933093,7.447957,7.475,46.925, ,remove data before 2012, ,NRT,calibrated
336,Brügg. Aegerten,Rhine,Aare,1003,CH,8293,8305.66,47.122066,7.283394,7.325,47.125, ,remove data before 2012, ,NRT,calibrated
337,Brugg,Rhine,Aare,1003,CH,11726,11467.38,47.482538,8.194892,8.175,47.475, ,remove data before 2012, ,NRT,calibrated
338,Murgenthal,Rhine,Aare,1003,CH,10119,9973.9,47.266591,7.830621,7.825,47.275, ,remove data before 2012, ,NRT,calibrated
345,Fürstenau,Rhine,Hinterrhein,1003,CH,1575,1639.7,46.715082,9.447353,9.425,46.725, ,remove data before 2012,low quality data  dam regulated/Regulated,NRT,calibrated
348,Zuerich.Unterhard,Rhine,Limmat,1003,CH,2176,2215.57,47.390585,8.525453,8.525,47.375, ,remove data before 2012,lake  close to 347/close to 347,NRT,calibrated
349,Weesen. Biäsche,Rhine,Linth,1003,CH,1061,1141.35,47.131563,9.088424,9.075,47.125, ,remove data before 2012, ,HIST,calibrated
350,Luzern. Geissmattbrücke,Rhine,Reuss,1003,CH,2251,2246.71,47.054009,8.298489,8.325,47.075, ,remove data before 2012 IN reserv IN glofas, ,NRT,calibrated
351,Mellingen,Rhine,Reuss,1003,CH,3382,3449.22,47.42103,8.271283,8.275,47.425, ,remove data before 2012, ,NRT,calibrated
353,Basel. Rheinhalle,Rhine,Rhine,1003,CH,35897,36374.73,47.559432,7.61667,7.625,47.575, ,remove data before 2012, ,NRT,calibrated
355,Domat/Ems,Rhine,Rhine,1003,CH,3229,3318.62,46.837667,9.456125,9.425,46.825, ,remove data before 2012, ,NRT,calibrated
356,Neuhausen. Flurlingerbrücke,Rhine,Rhine,1003,CH,11887,11978.35,47.682331,8.625871,8.625,47.675, ,remove data before 2012, ,HIST,calibrated
357,Rekingen,Rhine,Rhine,1003,CH,14718,15038.98,47.570622,8.329848,8.325,47.575, ,remove data before 2012, ,NRT,calibrated
358,Rheinfelden (Messstation),Rhine,Rhine,1003,CH,34526,34530.27,47.560715,7.799905,7.775,47.575, ,flow ok,Close to 353/close to 353,NRT,calibrated
361,Andelfingen,Rhine,Thur,1003,CH,1696,1782.78,47.596521,8.681994,8.675,47.625, ,remove data before 2012, ,NRT,calibrated
366,Geneve. Bout Du Monde,Rhone,Arve,1003,CH,1976,2022.23,46.180286,6.159361,6.175,46.175, ,flow ok, ,NRT,calibrated
371,Porte du Scex,Rhone,Rhône,1003,CH,5244,5254.06,46.349566,6.88861,6.925,46.325, ,influenced by reserv flow ok, ,NRT,calibrated
372,Sion,Rhone,Rhône,1003,CH,3373,3256.99,46.21909,7.3579,7.375,46.225, ,flow ok seems influenced by reserv,Low flow is wrong  could use hist24/issues with low flow,NRT,calibrated
380,Borgotaro,Po,Taro,1016,IT,NULL,442.15,44.514057,9.84219,9.825,44.525, ,flow ok, ,NRT,calibrated
396,Bomporto,Po,Panaro,1016,IT,NULL,1151.37,44.727163,11.045084,11.075,44.725, , , ,HIST,calibrated
398,Piacenza,Po,Po,1016,IT,42030,41840.86,45.060519,9.705535,9.775,45.125, ,flow ok, ,HIST,calibrated
399,Cremona,Po,Po,1016,IT,NULL,51036.28,45.128596,9.995033,10.025,45.125, , , ,efas,calibrated
410,Pioppa,Po,Secchia,1016,IT,NULL,1437.66,44.856755,10.964897,11.025,44.875, ,flow ok, ,NRT,calibrated
428,San Secondo,Po,Taro,1016,IT,NULL,1521.97,44.916891,10.254303,10.275,44.925, , , ,NRT,calibrated
454,Parma Ponte Verdi,Po,Parma,1016,IT,NULL,750.08,44.805476,10.324681,10.325,44.825, , , ,NRT,calibrated
457,Ampermoching,Danube,Amper,1025,DE,2188.55,2346.33,48.297,11.4916,11.475,48.275, , , ,NRT,calibrated
458,Augsburg Oberhausen,Danube,Wertach,1025,DE,1256.9,1288.64,48.378353,10.881891,10.875,48.325, , , ,efas,calibrated
460,Beilngries oberh. der Sulz,Danube,Altmuhl,1025,DE,2251.2,2214.5,49.0285,11.4783,11.425,48.975, , ,outlier? close to 465 /close to 465,NRT,calibrated
461,Burghausen,Danube,Salzach,1025,DE,6649,6639.29,48.1585,12.8341,12.825,48.175, , , ,HIST,calibrated
462,Chamerau,Danube,Regen,1025,DE,1356.53,1401.98,49.181157,12.746633,12.775,49.175, , , ,NRT,calibrated
463,Dillingen,Danube,Danube,1025,DE,11349.87,11584.54,48.5684,10.5005,10.475,48.575, , ,-/flows impacted by river barrages along the Donau complex retention effects in high flow conditions,NRT,calibrated
465,Eichstätt,Danube,Altmuhl,1025,DE,1396.81,1401.24,48.883072,11.200333,11.175,48.875, , , ,NRT,calibrated
467,Harburg,Danube,Wornitz,1025,DE,1568.62,1566.46,48.783017,10.692216,10.625,48.825, , , ,NRT,calibrated
468,Hüttendorf,Rhine,Regnitz,1025,DE,3864.37,3875.08,49.5461,10.9736,10.975,49.525, ,flow ok, ,NRT,calibrated
469,Ingolstadt Luitpoldstraße,Danube,Danube,1025,DE,20001,20296.79,48.7574,11.426,11.375,48.725, , ,-/keeping it for routing,NRT,calibrated
471,Kelheim,Danube,Danube,1025,DE,23019.24,22819.1,48.9166,11.8643,11.825,48.875, , , ,NRT,calibrated
472,Kemmern,Rhine,Main,1025,DE,4223.84,4211.09,49.951,10.8741,10.875,49.975, ,flow ok, ,NRT,calibrated
474,Landau,Danube,Isar,1025,DE,8391.54,8796.99,48.675294,12.692566,12.675,48.675, , ,close to 483/close to 483,NRT,calibrated
476,Mainleus,Rhine,Main,1025,DE,1165.55,1175.45,50.099504,11.373051,11.375,50.075, ,flow ok,Close to 486/close to 486,HIST,calibrated
477,Münchshofen,Danube,Naab,1025,DE,4007.77,4018.93,49.234,12.084,12.075,49.275, , , ,NRT,calibrated
480,Nürnberg,Rhine,Pegnitz,1025,DE,1197.58,1267.3,49.45582,11.052531,11.075,49.475, ,flow ok, ,NRT,calibrated
486,Schwürbitz,Rhine,Main,1025,DE,2418.68,2444.03,50.165,11.1512,11.175,50.175, ,flow ok, ,NRT,calibrated
487,Seebruck,Danube,Alz,1025,DE,1399.32,1462.73,47.934545,12.480662,12.475,47.925, , ,lake moved station downstream/keep it because downstream of lake,HIST,calibrated
488,Unterköblitz,Danube,Naab,1025,DE,2010.38,2023.65,49.5356,12.154,12.125,49.525, , , ,NRT,calibrated
489,Wasserburg,Danube,Inn,1025,DE,11980.37,11894.53,48.0593,12.2343,12.225,48.075, , , ,NRT,calibrated
490,Wolfsmünster,Rhine,Franconian Saale,1025,DE,2120.89,2140.06,50.0877,9.7356,9.725,50.125, ,flow ok, ,NRT,calibrated
491,Tokarnia,Vistula,Czarna Nida,1024,PL,NULL,1234.79,50.7742,20.4531,20.475,50.775, ,flow ok, ,efas,calibrated
492,ŻABNO,Vistula,Dunajec,1024,PL,6740.66,6627.72,50.131944,20.863611,20.875,50.125, , , , ,calibrated
493,Pinczow,Vistula,Nida,1024,PL,NULL,3337.9,50.5139,20.5208,20.525,50.525, ,flow ok, ,efas,calibrated
494,Stary Sacz,Vistula,Poprad,1024,PL,NULL,2003.48,49.5686,20.66,20.675,49.575, ,flow ok, ,efas,calibrated
495,Proszowki,Vistula,Rába,1024,PL,1470,1522.16,49.9961,20.4336,20.425,49.975, ,flow ok, ,efas,calibrated
496,JAROSŁAW,Vistula,San,1024,PL,7028.16,6950.38,50.021111,22.702778,22.675,50.075, , , , ,calibrated
497,NISKO,Vistula,San,1024,PL,15578.39,15517.76,50.52,22.192778,22.175,50.525, , , , ,calibrated
498,Zator,Vistula,Skawa,1024,PL,NULL,1222.38,49.9992,19.4456,19.425,49.975, ,flow ok, ,efas,calibrated
500,SMOLICE,Vistula,Vistula,1024,PL,6796.18,6782.19,50.031111,19.460278,19.425,50.025, ,flow ok, ,efas,calibrated
502,SZCZUCIN,Vistula,Vistula,1024,PL,23876.38,24329.13,50.326944,21.077222,21.075,50.325, , , , ,calibrated
503,SANDOMIERZ,Vistula,Vistula,1024,PL,31809.9,31844.14,50.6725,21.746111,21.725,50.675, , , , ,calibrated
504,ZAWICHOST,Vistula,Vistula,1024,PL,50654.57,50496.44,50.805833,21.862778,21.825,50.825, , , , ,calibrated
505,Rzeszow,Vistula,Wislok,1024,PL,NULL,2123.55,50.0397,22.0156,22.025,50.025, ,flow ok, ,efas,calibrated
506,MIELEC 2,Vistula,WISLOKA,1024,PL,3891.69,4043.35,50.278889,21.430556,21.425,50.275, ,14  looks OK!, , ,calibrated
507,Kunow,Vistula,Kamienna,1024,PL,NULL,1229.55,50.9619,21.2789,21.275,50.975, ,flow ok, ,efas,calibrated
508,Lochow,Vistula,Liwiec,1024,PL,2462,2546.27,52.51,21.6783,21.725,52.475, ,flow ok, ,efas,calibrated
509,SULEJÓW (KOPALNIA),Vistula,Pilica,1024,PL,3927.69,3892.1,51.34361,19.88611,19.875,51.325, , , , ,calibrated
510,KOŚMIN,Vistula,Wieprz,1024,PL,10292.67,10160.79,51.573056,22.001389,21.975,51.575, , , , ,calibrated
511,BORKOWO,Vistula,Wkra,1024,PL,5133.19,5127.47,52.561667,20.665556,20.675,52.575, , , , ,calibrated
512,BURZYN,Vistula,Biebrza,1024,PL,6928.92,7015.65,53.273889,22.459444,22.475,53.275, , , , ,calibrated
513,Prosna,Pregolya,Guber,1024,PL,NULL,1001.98,54.2336,21.086667,21.125,54.225, ,flow ok, ,efas,calibrated
514,Sepopol,Pregolya,Lyna,1024,PL,NULL,3675.34,54.2664,21.005278,20.975,54.275, ,flow ok, ,efas,calibrated
516,PIĄTNICA-ŁOMŻA,Vistula,Narew,1024,PL,15347.46,15378.1,53.193333,22.093333,22.075,53.175, , , , ,calibrated
517,ZAMBSKI KOŚCIELNE,Vistula,Narew,1024,PL,27807.5,28425.93,52.756111,21.206111,21.225,52.775, , , , ,calibrated
518,Bialobrzeg Blizszy,Vistula,Omulew,1024,PL,NULL,1904.7,53.1083,21.478889,21.475,53.125, ,flow ok, ,efas,calibrated
519,Makow Mazowiecki,Vistula,Orzyc,1024,PL,NULL,1973.54,52.8592,21.106944,21.125,52.825, ,flow ok, ,efas,calibrated
520,DOBRYLAS,Vistula,Pisa,1024,PL,4082.38,4568.54,53.284722,21.866944,21.775,53.375, , , , ,calibrated
521,Fasty,Vistula,Suprasl,1024,PL,NULL,1858.63,53.1786,23.025833,23.025,53.175, ,flow ok, ,efas,calibrated
522,Mieduniszki,Pregolya,Angrapa,1024,PL,NULL,961,54.3264,21.980278,21.975,54.375, ,flow ok,-/Moved downstream,efas,calibrated
524,Piatnica,Oder,Kaczawa,1024,PL,NULL,1829.13,51.227778,16.198611,16.175,51.225, ,flow ok, ,efas,calibrated
526,Olawa,Oder,Osława,1024,PL,NULL,805.23,50.947778,17.292778,17.275,50.975, ,flow ok, ,efas,calibrated
533,CIGACICE,Oder,Oder,1024,PL,39900.85,39590.13,52.033056,15.6075,15.625,52.025, , , ,HIST,calibrated
534,Bardo,Oder,Nysa Klodzka,1024,PL,NULL,1877.77,50.503611,16.741111,16.725,50.525, ,CLEAN outliers 2007,-/removed Q data before 2008,efas,calibrated
535,OSETNO,Oder,Barycz,1024,PL,4579.55,4572.22,51.631667,16.4625,16.425,51.625, ,source,low discharge maybe wrong LDD/low discharge but seems OK, ,calibrated
536,POŁĘCKO,Oder,Oder,1024,PL,47164.75,46957.46,52.052778,14.892222,14.875,52.075, ,check data 1983 not sure also after 2021 seems regulated, ,efas,calibrated
537,Korzensko,Oder,Orla,1024,PL,NULL,1230.56,51.539167,16.8725,16.875,51.525, ,flow ok,DO NOT USE Wrong LDD/Low discharge but seems OK,efas,calibrated
538,RACIBÓRZ-MIEDONIA,Oder,Oder,1024,PL,6728.54,6880.44,50.122778,18.230833,18.225,50.125, , , , ,calibrated
542,Jarnoltow,Oder,Bistrița,1024,PL,NULL,1761.97,51.121944,16.842778,16.825,51.125, ,flow ok, ,efas,calibrated
543,SŁUBICE,Oder,Oder,1024,PL,53511.26,53423.21,52.348333,14.556111,14.525,52.375, , ,Close to 21/Close to 21,HIST,calibrated
544,GOZDOWICE,Oder,Oder,1024,PL,109795.07,109992.24,52.764167,14.317778,14.375,52.725, , ,Close to 26/Close to 26,NRT,calibrated
545,DZIAŁOSZYN,Oder,Warta,1024,PL,4093.63,4092.95,51.11,18.873333,18.925,51.075, , , , ,calibrated
547,SŁAWSK,Oder,Warta,1024,PL,13759.46,13762.17,52.198611,18.134722,18.125,52.175, , , , ,calibrated
548,POZNAŃ (MOST ROCHA),Oder,Warta,1024,PL,25908.89,25703.14,52.398611,16.942778,16.975,52.425, , , , ,calibrated
549,GORZÓW WIELKOPOLSKI,Oder,Warta,1024,PL,52362.12,52693.43,52.73,15.253056,15.275,52.725, , , ,HIST,calibrated
550,Dabie,Oder,Ner,1024,PL,NULL,1744.61,52.085278,18.825278,18.825,52.075, ,flow ok, ,efas,calibrated
552,BOGUSŁAW,Oder,Prosna,1024,PL,4282.38,4307.69,51.898889,17.954722,17.975,51.875, , , , ,calibrated
553,PIŁA,Oder,Gwda,1024,PL,4712.57,4857.91,53.151389,16.740278,16.775,53.125, , ,low quality data  flow is too small compared to catchment size possibly wrong location/Flow is very low compared to catchment size but is consistent with nearby 1816,HIST,calibrated
554,Drawiny,Oder,Drava,1024,PL,NULL,3119.1,52.885556,15.977778,15.975,52.925, ,flow ok, ,efas,calibrated
555,Podgorze,Oder,Widawka,1024,PL,NULL,2401.78,51.465,18.943333,18.925,51.475, ,flow ok, ,efas,calibrated
556,Nemcice,Elbe,Labe,1019,CZ,4300.51,4438.02,50.09454,15.808156,15.825,50.125, ,flow ok, ,HIST,calibrated
557,Prelouc,Elbe,Labe,1019,CZ,6435.02,6534.96,50.044538,15.573471,15.575,50.025, ,flow ok, ,HIST,calibrated
559,Ceske Budejovice,Elbe,Vltava,1019,CZ,2849.82,2880.25,48.980737,14.463986,14.475,48.975, ,flow ok, ,HIST,calibrated
560,Bechyne,Elbe,Luznice,1019,CZ,4055.13,4200.32,49.288757,14.471184,14.475,49.275, ,flow ok, ,HIST,calibrated
561,Pisek,Elbe,Otava,1019,CZ,2913.93,2878.65,49.31291,14.145395,14.175,49.325, ,flow ok, ,HIST,calibrated
562,Nespeky,Elbe,Sazava,1019,CZ,4038.25,4157.61,49.859529,14.650837,14.675,49.875, ,flow ok, ,HIST,calibrated
564,Beroun,Elbe,Litavka,1019,CZ,628.96,600.45,49.958,14.075,14.025,49.925, , , ,HIST,calibrated
567,Karlovy Vary,Elbe,Ohre,1019,CZ,2861.17,2843.51,50.237485,12.883837,12.925,50.225, ,flow ok, ,HIST,calibrated
568,Louny I.,Elbe,Ohre,1019,CZ,4962.3,4943.02,50.357499,13.804808,13.825,50.375, ,influenced by reserv NOT in glofas, ,HIST,calibrated
569,Usti nad Labem,Elbe,Labe,1019,CZ,48540.85,48558.35,50.653028,14.042806,14.075,50.625, ,probably NOT outlier in 2003, ,HIST,calibrated
570,Svinov,Oder,Oder,1019,CZ,1613.73,1605.54,49.819936,18.217288,18.225,49.775, , , , ,calibrated
571,Dehylov,Oder,Opava,1019,CZ,2038.8,2113.89,49.878817,18.177844,18.175,49.875, , , , ,calibrated
573,Vernovice,Oder,Olza,1019,CZ,1071.19,1121.69,49.930486,18.419473,18.425,49.925, , , ,HIST,calibrated
574,Olomouc,Danube,Great Morava,1019,CZ,3323.94,3300.21,49.576874,17.26133,17.275,49.575, , , ,HIST,calibrated
576,Kromeriz,Danube,Great Morava,1019,CZ,7030.31,6971.66,49.301911,17.39939,17.375,49.325, , , ,HIST,calibrated
578,Travni Dvur,Danube,Thaya,1019,CZ,3531.36,3712.35,48.790548,16.437896,16.425,48.775, , , ,HIST,calibrated
579,Zidlochovice,Danube,Svratka,1019,CZ,3940,4097.67,49.035525,16.616741,16.625,49.025, , , ,HIST,calibrated
581,Breclav-Ladna,Danube,Thaya,1019,CZ,12279.97,12498.39,48.79945,16.858672,16.825,48.825, , , ,HIST,calibrated
582,Miziya,Danube,Ogosta,1026,BG,3112,3128.08,43.6919,23.8258,23.825,43.675, , flow ok, ,efas,calibrated
583,Novi Iskar,Danube,Iskar,1026,BG,3662,3532.74,42.8292,23.3598,23.375,42.825, , , ,efas,calibrated
584,Orehovica,Danube,Iskar,1026,BG,8366,8346.91,43.5878,24.3589,24.375,43.575, , , ,efas,calibrated
585,Tarnene,Danube,Vit,1026,BG,2236,2059.43,43.4056,24.5192,24.475,43.375, , ,not congruent with 2731 after 12-2001/similar to 2731  has recent data,efas,calibrated
587,Izgrev,Danube,Osam,1026,BG,2154,2191.91,43.4555,25.0528,25.025,43.475, , flow ok, ,efas,calibrated
588,Sevlievo,Danube,Rositsa,1026,BG,958,1020.97,42.9958,25.1086,25.125,42.975, ,flow ok  could option only, ,efas,calibrated
589,Karantsi,Danube,Yantra,1026,BG,6860,6858.37,43.3803,25.6672,25.675,43.375, , flow ok, ,efas,calibrated
590,Dzhuliunitsa,Danube,Dzhulunitsa,1026,BG,882,861.35,43.133,25.9059,25.925,43.125, ,flow ok, ,efas,calibrated
591,Shirocovo,Danube,Cherni Lom,1026,BG,1383,1417.86,43.5529,25.9458,25.925,43.575, ,flow ok, ,efas,calibrated
592,Plovdiv,Maritsa / Evros,Maritsa / Evros,1026,BG,7926,7892.780032,42.1545,24.7388,24.725,42.175, , flow ok, ,efas,calibrated
593,Svilengrad,Maritsa / Evros,Maritsa / Evros,1026,BG,20857,20876.51328,41.7609,26.1961,26.225,41.725, , flow ok, ,efas,calibrated
595,Ebro En Castejon,Ebro,Ebro,1012,ES,25194,25208.16,42.180075,-1.694672,-1.675,42.175, ,very similar to 600, ,NRT,calibrated
596,Ega En Andosilla,Ebro,Ega,1012,ES,1445,1343.83,42.374073,-1.948857,-1.925,42.375, , flow ok, ,NRT,calibrated
597,Arga En Funes,Ebro,Arga,1012,ES,2759,2794.75,42.314788,-1.801186,-1.775,42.375, , flow ok, ,NRT,calibrated
600,Ebro En Zaragoza,Ebro,Ebro,1012,ES,40434,40300.99,41.658572,-0.881001,-0.875,41.675, , flow ok, ,NRT,calibrated
602,Martin En Hijar,Ebro,Martin,1012,ES,1419,1496.72,41.174519,-0.453206,-0.475,41.125, , influenced by reserv NOT in glofas, ,HIST,calibrated
603,Cinca En Fraga,Ebro,Cinca,1012,ES,9612,9525.9,41.551916,0.323398,0.325,41.525, , , ,NRT,calibrated
604,Segre En Seo De Urgel,Ebro,Segre,1012,ES,1233,1234.22,42.352442,1.459801,1.475,42.375, , flow ok,Close to 629/close to 629,NRT,calibrated
605,Segre En Seros,Ebro,Segre,1012,ES,12782,13004.18,41.45158,0.416323,0.475,41.475, , influenced by reserv NOT in glofas, ,HIST,calibrated
606,Ebro En Tortosa,Ebro,Ebro,1012,ES,84230,84309.54,40.813296,0.520716,0.525,40.825, , influenced by reserv NOT in glofas, ,HIST,calibrated
607,Guadalope Cola Santolea,Ebro,Guadalope,1012,ES,1002,1057.01,40.739821,-0.36836,-0.375,40.725, ,only hist flow ok,Moved upstream of dam/Discontinued but keeping it for calib because no alternative,efas,calibrated
608,Bergantes En Zorita,Ebro,Bergantes,1012,ES,1038,1058.1,40.778878,-0.155649,-0.175,40.775, , flow ok, ,NRT,calibrated
611,Najerilla En Torremontalbo,Ebro,Najerilla,1012,ES,1090,1031.32,42.498307,-2.68401,-2.675,42.475, , flow ok, ,NRT,calibrated
613,Jiloca En Morata De Jiloca,Ebro,Jiloca,1012,ES,2502,2506.16,41.251626,-1.58451,-1.575,41.275, ,not sure about big data change in 2023, ,NRT,calibrated
614,Gallego En Sta. Eulalia,Ebro,Gallego,1012,ES,1901,1894.56,42.271258,-0.750966,-0.725,42.275, ,influenced by reserv, ,NRT,calibrated
615,Irati En Liedena,Ebro,Irati,1012,ES,1546,1611.83,42.623685,-1.29483,-1.325,42.625, , flow ok, ,NRT,calibrated
618,Jalon En Grisen,Ebro,Jalon,1012,ES,9694,9756.3,41.732907,-1.175651,-1.175,41.725, ,regulated water, ,NRT,calibrated
620,Nela En Trespaderne,Ebro,Nela,1012,ES,1093,1109.56,42.802417,-3.40162,-3.425,42.825, , flow ok, ,NRT,calibrated
621,Oca En Oña,Ebro,Oka,1012,ES,1051,1094.29,42.735292,-3.41388,-3.425,42.725, , flow ok, ,NRT,calibrated
622,Flumen En Albalatillo,Ebro,Flumen,1012,ES,1499,1449.75,41.758431,-0.181336,-0.175,41.775, , flow ok, ,NRT,calibrated
629,Segre En Organya,Ebro,Segre,1012,ES,2384,2469.04,42.229438,1.343341,1.325,42.225, , , ,NRT,calibrated
631,Ebro En Mendavia,Ebro,Ebro,1012,ES,12010,11912.79,42.41571,-2.205411,-2.225,42.425, , flow ok, ,NRT,calibrated
635,Ebro En Palazuelos,Ebro,Ebro,1012,ES,4530,4496.45,42.791702,-3.343153,-3.325,42.775, , , ,NRT,calibrated
636,Ebro En Asco,Ebro,Ebro,1012,ES,82245,82466.38,41.185938,0.569761,0.575,41.225, ,influenced by reserv NOT in glofas, ,NRT,calibrated
639,Alhama En Cintruenigo,Ebro,Alhama,1012,ES,1120,1219.7,42.079921,-1.811868,-1.825,42.075, ,not sure about data quality, ,NRT,calibrated
640,R.Alcanadre En Ballobar,Ebro,Alcanadre,1012,ES,3390,3359.12,41.6204,0.195275,0.175,41.625, ,flow ok, ,NRT,calibrated
642,Huerva En Zaragoza,Ebro,Huerva,1012,ES,1017,1092.67,41.637059,-0.897818,-0.925,41.625, ,influenced by reserv NOT in glofas, ,NRT,calibrated
643,Arba En Tauste,Ebro,Arba,1012,ES,2193,2225.7,41.912961,-1.280026,-1.275,41.925, ,flow ok, ,NRT,calibrated
646,Jalon En Chodes,Ebro,Jalon,1012,ES,7561,7508.89,41.494452,-1.461174,-1.475,41.475, ,regulated flow, ,NRT,calibrated
647,Ebro En Logroño,Ebro,Ebro,1012,ES,1037,10331.92,42.470961,-2.44567,-2.475,42.475, ,flow ok,Moved on Ebro main stream  close to 631/close to 631,NRT,calibrated
648,Tiron En Haro,Ebro,Tiron,1012,ES,1239,1234.34,42.578981,-2.877185,-2.925,42.575, ,flow ok, ,NRT,calibrated
649,Aragon En Martes,Ebro,Aragón,1012,ES,1083,1115.53,42.591487,-0.88283,-0.825,42.575, ,flow ok, ,NRT,calibrated
653,Arba En Ejea,Ebro,Arba,1012,ES,1046,1123.55,42.117427,-1.150894,-1.125,42.125, , ,Close to 643 lower quality/close to 643,NRT,calibrated
657,Agerdomajor,Danube,Kraszna,1017,HU,1974,2077.41,47.763,22.4201,22.475,47.775, ,flow ok,use after 01-1992  possible worng location or wrong area from provider/mapped on main river,NRT,calibrated
660,Bekes,Danube,Koros,1017,HU,9011,9727.3,46.7856,21.1419,21.075,46.825, , , ,NRT,calibrated
665,Csenger,Danube,Somes,1017,HU,15283,15431.71,47.841,22.6924,22.725,47.825, ,flow ok, ,NRT,calibrated
670,Felsoberecki,Danube,Bodrog,1017,HU,12886,12603.03,48.3566,21.692,21.675,48.375, , , ,NRT,calibrated
674,Hatvan,Danube,Zagyva,1017,HU,1222,1122.14,47.662,19.6826,19.675,47.625, ,remove flatliner 2009, ,NRT,calibrated
677,Jasztelek,Danube,Zagyva,1017,HU,4207,4269.2,47.4838,19.9938,19.975,47.525, ,seems flatliner in 2023, ,NRT,calibrated
678,Kiskore also,Danube,Tisza,1017,HU,65670,65750.44,47.4927,20.5165,20.525,47.525, ,flow ok, ,NRT,calibrated
682,Korosszakal,Danube,Crișul Repede,1017,HU,2489,2603.59,47.0116,21.6081,21.675,47.025, ,remove data 2013, ,NRT,calibrated
684,Kunszentmarton,Danube,Harmas-Koros,1017,HU,27354,28234.05,46.8481,20.2725,20.275,46.875, ,remove 2011 feb to oct, ,NRT,calibrated
686,Mako,Danube,Mures,1017,HU,30149,29933.08,46.2026,20.4556,20.425,46.225, , , ,NRT,calibrated
692,Paks,Danube,Danube,1017,HU,189092,187998.98,46.6268,18.8692,18.875,46.625, ,flow ok, ,efas,calibrated
693,Pocsaj,Danube,Barcau,1017,HU,3502,3800.48,47.2784,21.7975,21.775,47.275, ,flow ok, ,NRT,calibrated
696,Sarvar,Danube,Rába,1017,HU,5566,5520.26,47.2467,16.9538,16.975,47.225, ,flow ok, ,NRT,calibrated
699,Szentgotthard,Danube,Rába,1017,HU,3084,3117.61,46.9573,16.2759,16.275,46.975, ,flow ok, ,NRT,calibrated
700,Szolnok,Danube,Tisza,1017,HU,73113,73125.44,47.1695,20.1888,20.225,47.175, ,flow ok, ,NRT,calibrated
701,Tiszabecs,Danube,Tisza,1017,HU,9707,9442.88,48.1034,22.8288,22.825,48.125, ,flow ok, ,NRT,calibrated
703,Tiszapalkonya,Danube,Tisza,1017,HU,62730,62689.92,47.8934,21.0582,21.075,47.875, ,big gap from 96 to 2015 but flow ok, ,HIST,calibrated
707,Zahony,Danube,Tisza,1017,HU,32782,32672.9,48.4131,22.1728,22.175,48.425, ,flow ok, ,NRT,calibrated
715,Bacsa,Danube,Moson-Danube,1017,HU,17732,18131.57,47.7251,17.6763,17.675,47.725, , ,Not enough discarge data available for calibration period/mapped before confluence,efas,calibrated
772,GUSIN,Vistula,Vistula,1024,PL,81844.16,81638.66,51.892778,21.254444,21.275,51.875, ,flow ok, ,NRT,calibrated
773,KĘPA POLSKA,Vistula,Vistula,1024,PL,168357.53,167610.35,52.431389,19.963333,19.975,52.425, ,flow ok, ,NRT,calibrated
774,FRANKOPOL,Vistula,Western Bug,1024,PL,30636.63,29679.06,52.415,22.560833,22.525,52.425, ,flow ok, ,NRT,calibrated
775,Bistra,Danube,Viseu,1001,RO,1547,1542.02,47.863,24.1931,24.225,47.875, ,flow ok, ,NRT,calibrated
777,Beclean,Danube,Somesul Mare,1001,RO,NULL,4356,47.177167,24.151194,24.125,47.175, , , ,NRT,calibrated
778,Zerind,Danube,Crisul Negru,1001,RO,3702,3849.04,46.627167,21.515611,21.525,46.625, ,flow ok, ,NRT,calibrated
779,Chisineu Cris,Danube,Crisul Alb,1001,RO,NULL,3726.18,46.519528,21.509667,21.525,46.525, , ,close to 673/close to 673,NRT,calibrated
780,Salard,Danube,Barcau,1001,RO,NULL,1767.45,47.231528,22.028167,22.025,47.225, , , ,NRT,calibrated
782,Alba Iulia,Danube,Mures,1001,RO,18055,19416.6,46.036056,23.581361,23.575,46.025, , , ,HIST,calibrated
783,Arad,Danube,Mures,1001,RO,27280,27383.58,46.159889,21.320806,21.325,46.175, , ,negative values  preblems with river gauge  could use hist24  close to 2743/some issues with low flow,HIST,calibrated
784,Turda,Danube,Aries,1001,RO,NULL,2647.09,46.566278,23.784444,23.775,46.575, ,flow ok, ,NRT,calibrated
785,Mihalt,Danube,Tarnava Mare,1001,RO,NULL,6427.13,46.171611,23.730167,23.775,46.175, ,flow ok, ,HIST,calibrated
786,Sag,Danube,Timis,1001,RO,4493,4583.55,45.6462,21.1781,21.175,45.625, , , ,NRT,calibrated
787,Podari,Danube,Jiu,1001,RO,9334,9237.34,44.260139,23.78675,23.825,44.275, , , ,NRT,calibrated
788,Bals,Danube,Oltet,1001,RO,NULL,2131.98,44.348333,24.098889,24.125,44.375, , , ,NRT,calibrated
789,Alexandria,Danube,Vedea,1001,RO,NULL,3338.98,43.986778,25.318806,25.325,43.975, ,flow ok gap 2012, ,efas,calibrated
790,Calugareni,Danube,Neajlov,1001,RO,NULL,3280.05,44.171167,25.996917,26.025,44.175, ,flow ok, ,efas,calibrated
791,Adancata,Danube,Prahova,1001,RO,NULL,2252.12,44.755833,26.460583,26.425,44.775, ,flow ok, ,HIST,calibrated
792,Itcani,Danube,Suceava,1001,RO,NULL,2394.1,47.672778,26.234639,26.225,47.675, ,flow ok, ,efas,calibrated
793,Vranceni,Danube,Trotus,1001,RO,NULL,4146,46.209667,26.89525,26.875,46.225, ,flow ok, ,efas,calibrated
794,Botarlau,Danube,Putna,1001,RO,NULL,3089.21,45.632194,27.386417,27.375,45.625, ,flow ok, ,NRT,calibrated
796,Dragesti,Danube,Siret,1001,RO,11899,11796.06,46.723639,26.945444,26.925,46.725, ,flow ok, ,HIST,calibrated
797,Radauti,Danube,Prut,1001,RO,9074,9322.66,48.238806,26.824,26.775,48.225, ,flow ok, ,efas,calibrated
798,Bazias,Danube,Danube,1001,RO,570896,562121.61,44.8087,21.3901,21.375,44.775, ,flow ok, ,efas,calibrated
799,Hoghiz,Danube,Olt,1001,RO,7225,7040.22,45.991889,25.301083,25.325,45.975, ,flow ok, ,efas,calibrated
800,Gurahont,Danube,Crisul Alb,1001,RO,NULL,1693.45,46.277722,22.34225,22.325,46.275, ,gaps before 2017 but flow ok, ,efas,calibrated
802,Lugoj,Danube,Timis,1001,RO,NULL,2762.03,45.6837,21.9073,21.925,45.675, ,flow ok, ,NRT,calibrated
803,Tupilati,Danube,Moldova,1001,RO,NULL,3963.47,47.084639,26.648111,26.625,47.075, ,flow ok, ,efas,calibrated
804,Frumosu,Danube,Bistrita,1001,RO,NULL,2962.02,47.142472,25.861917,25.875,47.125, ,flow ok, ,HIST,calibrated
805,Ceatal Izmail,Danube,Ialomița,1001,RO,807000,785749.51,45.180222,28.8,28.775,45.225, ,flow ok, ,efas,calibrated
807,Zimnicea,Danube,Danube,1001,RO,658400,641867.38,43.630194,25.357306,25.375,43.625, ,flow ok, ,HIST,calibrated
808,Lungoci,Danube,Siret,1001,RO,36030,36463.37,45.556611,27.509972,27.525,45.575, ,flow ok, ,efas,calibrated
809,Cosereni,Danube,Ialomița,1001,RO,6265,6367.91,44.696972,26.571694,26.575,44.675, ,flow ok, ,efas,calibrated
811,Cornet,Danube,Olt,1001,RO,13733,13735.92,45.385111,24.297222,24.325,45.375, ,flow ok, ,efas,calibrated
817,Kormend,Danube,Rába,1017,HU,4734,4718.99,47.0064,16.6106,16.625,47.025, ,flow ok, ,NRT,calibrated
823,Gamzigrad,Danube,Crni Timok,1020,RS,1213,1204.42,43.924319,22.173151,22.175,43.925, ,flow ok, ,HIST,calibrated
829,Räpina,Narva,Vohandu jogi,1028,EE,1130,1122.46,58.09556,27.45446,27.425,58.075, , , , ,calibrated
830,Aarschot,Scheldt,Demer,1022,BE,2146.42,2094.79,50.987652,4.822323,4.775,50.975, ,flow ok, ,NRT,calibrated
832,Raska,Danube,Ibar,1020,RS,6270,6260.93,43.296433,20.613816,20.625,43.275, ,flow ok,Oscillations  close to 257/close to 257,NRT,calibrated
833,L'Ill à Ensisheim,Rhine,Ill,1021,FR,1038,1002.27,47.866887,7.348209,7.375,47.875, , , ,HIST,calibrated
840,Sisinec,Danube,Kupa,1031,HR,7364,6943.5,45.4485,16.077194,16.075,45.425, ,flow ok, ,NRT,calibrated
842,Kostajnica,Danube,Una,1031,HR,8876,7638.21,45.222389,16.548722,16.625,45.225, , , ,HIST,calibrated
845,Zagreb,Danube,Sava,1031,HR,12450,11413.22,45.7845,15.953306,16.025,45.775, ,flow ok, ,NRT,calibrated
851,Stara Gradiska,Danube,Sava,1031,HR,40262,37758.1,45.15025,17.249944,17.275,45.175, ,flow ok, ,HIST,calibrated
854,Slavonski Brod,Danube,Sava,1031,HR,50858,47676.93,45.152944,18.004778,18.025,45.125, ,no data 2017 2018 flow ok, ,NRT,calibrated
856,Zupanja Stepenica,Danube,Sava,1031,HR,62891,60130.68,45.073472,18.686667,18.675,45.075, ,no data 2017 2018 flow ok, ,NRT,calibrated
857,Donja Dubrava,Danube,Drava,1031,HR,16770,17029.65,46.309028,16.816639,16.775,46.325, ,flow ok,dams  oscillations/Regulated,NRT,calibrated
858,Botovo,Danube,Drava,1031,HR,31038,31446.6,46.242361,16.939111,16.925,46.225, ,flow ok, ,NRT,calibrated
860,Terezino Polje,Danube,Drava,1031,HR,33916,34238.64,45.944528,17.461778,17.425,45.925, ,flow ok,oscillations Moved upstream close to 659/close to 659 but longer data and RT,NRT,calibrated
863,Donji Miholjac C.S.,Danube,Drava,1031,HR,37142,38098.42,45.774639,18.172444,18.175,45.775, ,flow ok, ,NRT,calibrated
870,Ilok most,Danube,Danube,1031,HR,253737,254536.86,45.231111,19.401667,19.375,45.225, ,not sure if outlier in 2016 jan, ,NRT,calibrated
876,Günzburg u. d. Günzmündung,Danube,Danube,1025,DE,9399.96,9342.51,48.4654,10.285,10.325,48.475, ,only data before 2019 we have only max values,wrong hydrometric zero or wrong rating curve/many missing data,NRT,calibrated
886,Pfelling,Danube,Danube,1025,DE,37757.18,37602.13,48.8798,12.7472,12.725,48.875, , , ,NRT,calibrated
892,Wiblingen,Danube,Iller,1025,DE,2040.21,2104.67,48.3708,9.9874,10.025,48.325, , , ,NRT,calibrated
895,Augsburg u. d. Wertachmündung,Danube,Lech,1025,DE,3802.87,4151.33,48.4081,10.888,10.875,48.425, , ,low quality data/regulated flows due to river barrages along the Lech  do not rely on simulated flow from upstream,NRT,calibrated
900,Heitzenhofen,Danube,Naab,1025,DE,5431.64,5411.99,49.1183,11.9363,11.975,49.075, , , ,NRT,calibrated
903,Marienthal,Danube,Regen,1025,DE,2590.4,2596.53,49.223,12.1756,12.225,49.225, , , ,NRT,calibrated
904,München,Danube,Isar,1025,DE,2814,3072.13,48.1455,11.5969,11.575,48.125, , , ,NRT,calibrated
928,Pettstadt,Rhine,Regnitz,1025,DE,6991,7143.9,49.8328,10.9489,10.975,49.825, ,flow ok, ,NRT,calibrated
931,Lauffen,Rhine,Neckar,1004,DE,7916,7910.96,49.072307,9.159831,9.175,49.025, ,flow ok, ,NRT,calibrated
933,Rockenau SKA,Rhine,Neckar,1004,DE,1271,12777.03,49.43823,9.005064,9.025,49.425, , poor data quality many gaps after 2019,Moved on main stream  close to 932/close to 932,HIST,calibrated
934,Hattingen,Rhine,Ruhr,1004,DE,4117.94,4269.09,51.399742,7.160984,7.175,51.375, ,2021 waterlevel and disch risers thus no outlier, ,NRT,calibrated
941,Lieske,Elbe,Spree,1007,DE,775,817.73,51.330587,14.530304,14.525,51.325, ,flow ok, ,NRT,calibrated
952,Sorbolo,Po,Enza,1016,IT,NULL,816.71,44.843971,10.454047,10.425,44.825, ,flow ok, ,NRT,calibrated
953,St. Pieter Noord,Meuse,Meuse,1008,NL,21100,21379.37,50.830306,5.697333,5.675,50.825, ,flow ok, ,NRT,calibrated
968,Corbones_Ca,Guadalquivir,Corbones,1040,ES,1377,1698.28,37.563713,-5.606802,-5.575,37.525, ,flow ok, ,NRT,calibrated
972,Genil_Ecija,Guadalquivir,Genil,1040,ES,8028,8094.54,37.558053,-5.077749,-5.075,37.525, ,flow ok, ,NRT,calibrated
973,Genil_Loja,Guadalquivir,Genil,1040,ES,4220,4062.93,37.175136,-4.166639,-4.175,37.175, ,cannot move before inflow flow ok, ,NRT,calibrated
977,Guadalb_Men,Guadalquivir,Guadalbullon,1040,ES,1111,1125.51,37.974215,-3.78081,-3.775,37.925, ,flow ok, ,NRT,calibrated
978,Guadalq_Men,Guadalquivir,Guadalquivir,1040,ES,16166,16176.6,37.98415,-3.79918,-3.775,37.975, ,flow ok, ,NRT,calibrated
990,Bobadilla,Guadalhorce,Guadalhorce,1030,ES,761,789.64,37.040024,-4.695745,-4.675,37.025, ,flow ok, ,HIST,calibrated
998,Trasvase de Majaceite,Guadiaro,Guadiaro,1030,ES,482,520.46,36.57886,-5.337874,-5.325,36.575, , , ,HIST,calibrated
1002,La Garonne à Tonneins,Garonne,Garonne,1021,FR,51500,50239.46,44.38893,0.301146,0.275,44.425, ,flow ok, ,NRT,calibrated
1006,La Cure à Arcy-sur-Cure,Seine,Cure,1021,FR,1182,1259.56,47.602645,3.756716,3.775,47.575, ,flow ok, ,NRT,calibrated
1007,La Brenne à Montbard,Seine,Brenne,1021,FR,732,733.41,47.623213,4.323838,4.375,47.625, ,flow ok, ,NRT,calibrated
1008,L'Armançon à Tronchoy,Seine,Armançon,1021,FR,1983,1986.64,47.91354,3.93892,3.925,47.925, ,flow ok, ,NRT,calibrated
1009,La Vingeanne à Oisilly,Rhône,Vingeanne,1021,FR,609,605.84,47.42158,5.367214,5.375,47.425, ,flow ok, ,HIST,calibrated
1010,L'Ouche à Plombières-lès-Dijon,Rhône,Ouche,1021,FR,651,652,47.332537,4.980953,4.975,47.325, , , ,HIST,calibrated
1011,L'Azergues à Lozanne,Rhône,Azergues,1021,FR,792,840.9,45.858588,4.687614,4.675,45.875, ,flow ok, ,HIST,calibrated
1013,L'Ain à Chazey-sur-Ain,Rhône,Ain,1021,FR,3630,3699.21,45.906383,5.234015,5.225,45.925, ,flow ok, ,HIST,calibrated
1017,Nybergsund,Gota,Trysilelva / Klaralven,1002,NO,4420.24,4410.23,61.259078,12.322496,12.325,61.275, ,flow ok, ,NRT,calibrated
1020,Iijärvi - luusua,Naatamo,Iijarvi,1011,FI,744,763.11,69.509454,28.037857,28.025,69.525, ,only remove flatliner 2021 august, ,NRT,calibrated
1022,Aulestad,Glomma,Gausa,1002,NO,866.36,850.87,61.215377,10.270885,10.275,61.225, ,flow ok, ,NRT,calibrated
1026,Viksvatn (Hestadfjorden),Gaula (Sande),Gaula (Sande),1002,NO,508.13,506.41,61.333056,5.886256,5.925,61.325, ,flow ok, ,NRT,calibrated
1030,Vækkava. Iesjokka,Tana,Lesjokka,1002,NO,2079.25,2082.82,69.426393,24.938337,24.925,69.425, ,flow ok, ,NRT,calibrated
1031,Unsetåa,Glomma,Unsetaa,1002,NO,618.36,625.21,61.94611,11.083512,11.075,61.975, ,outlier in 2015, ,NRT,calibrated
1033,Trangen,Namsen,Sanddola,1002,NO,852.39,925.61,64.430467,12.481649,12.525,64.475, ,we can choose not to clean  flatliner short 2016 and 2019, ,NRT,calibrated
1036,Syrstad,Orkla,Orkla,1002,NO,2278.13,2325.42,63.032252,9.727708,9.725,63.025, ,seems a different flow from 2018 to 2021, ,NRT,calibrated
1037,Bertnem,Namsen,Namsen,1002,NO,5161.54,5343.26,64.468065,12.058677,12.075,64.475, ,flow ok, ,NRT,calibrated
1040,Svartfossberget,Reisaelva,Reisaelva,1002,NO,1932.29,1965.86,69.52854,21.381661,21.375,69.525, ,flow ok, ,NRT,calibrated
1041,Blaker,Glomma,Glomma,1002,NO,38588.11,38541.25,60.004052,11.299323,11.325,60.025, ,flatliner 2016, ,NRT,calibrated
1048,Stuvane,Laerdalselva,Laerdalselva,1002,NO,994.19,1068.86,61.044155,7.619074,7.625,61.025, ,flow ok, ,NRT,calibrated
1050,Bruhaug,Lagen,Numedalslagen,1002,NO,3461.42,3435.98,60.030147,9.235398,9.225,60.025, ,flow ok seems influenced by reserv,outlier removed with qc dam  close to 2906/Regulated,NRT,calibrated
1056,Bulken (Vangsvatnet),Vosso,Vosso,1002,NO,1092.04,1003.52,60.628683,6.292537,6.275,60.625, ,flow ok, ,NRT,calibrated
1060,Driva v/Elverhøy bru,Driva,Driva,1002,NO,2437.41,2368.92,62.64874,8.694089,8.675,62.675, ,flow ok, ,NRT,calibrated
1061,Driva v/Risefoss,Driva,Driva,1002,NO,745.38,735.58,62.511384,9.592639,9.575,62.525, ,flow ok, ,NRT,calibrated
1062,Eggafoss,Gaula (Melhus),Gaula (Melhus),1002,NO,654.24,639.82,62.890107,11.18388,11.175,62.875, ,outliers end 2022, ,NRT,calibrated
1068,Selfors bru,Beiarelva,Beiarelva,1002,NO,788.34,795.63,66.996977,14.698448,14.675,66.975, ,flatliner  2021 very short  no need to clean, ,NRT,calibrated
1070,Salsvatn,Moelva,Salsvatnet,1002,NO,431.9,518.48,64.705377,11.454362,11.475,64.725, , , ,NRT,calibrated
1075,Rauma v/Horgheim,Rauma,Rauma,1002,NO,1099.42,1158.23,62.473214,7.78144,7.825,62.475, ,flow ok, ,NRT,calibrated
1076,Rathe,Nea,Nea,1002,NO,3057.88,3067.56,63.384904,10.390233,10.425,63.375, ,very noisyaffected by res+lakeonly stationremove after cal if it does not work, ,NRT,calibrated
1077,Polmak nye,Tana,Tana,1002,NO,14158.06,14118.97,70.070345,28.016008,28.025,70.075, ,flow ok, ,NRT,calibrated
1082,Øvrevatn,Salangs,Svartdalsbekken,1002,NO,526.02,496.9,68.857619,17.941075,17.925,68.875, ,flatliner in  2019, ,NRT,calibrated
1083,Omnesfoss,Skien,Heddola,1002,NO,807.71,815.55,59.611714,8.993231,9.025,59.575, ,flow ok, ,NRT,calibrated
1086,Flaksvatn,Tovdal,Tovdal,1002,NO,1780.66,1777.51,58.330464,8.203061,8.225,58.325, ,flow ok, ,NRT,calibrated
1088,Fustvatn,Fusta,Fusta,1002,NO,525.69,533.19,65.905237,13.307593,13.325,65.925, ,flow ok influenced by reserv, ,NRT,calibrated
1091,Nervoll,Vefsna,Vefsna,1002,NO,653.36,662.21,65.437572,13.986036,14.025,65.475, ,flow ok, ,NRT,calibrated
1092,Nedre Sjodalsvatn,Glomma,Sjoa,1002,NO,479.97,445.4,61.560274,8.927067,8.925,61.525, , , ,NRT,calibrated
1099,Gaulfoss,Gaula (Melhus),Gaula (Melhus),1002,NO,3086.41,3035.27,63.108479,10.229018,10.225,63.075, ,flow ok, ,NRT,calibrated
1101,Masi,Altaelva,Kautokeinoelva,1002,NO,5620.81,5660.9,69.420041,23.635036,23.625,69.425, ,flow ok, ,NRT,calibrated
1103,Gjedlakleiv,Bjerkreim,Bjerkreim,1002,NO,635.15,597.47,58.573402,6.066195,6.025,58.525, ,flow ok, ,NRT,calibrated
1107,Malangsfoss,Malselv,Malselv,1002,NO,3110.65,3253.66,69.034928,18.658337,18.675,69.025, ,flow ok, ,NRT,calibrated
1110,Grunnfoss,Verdal,Helgaa,1002,NO,880.37,973.21,63.79118,11.809693,11.825,63.775, ,flow ok, ,NRT,calibrated
1114,Laksfors,Vefsna,Vefsna,1002,NO,3653.4,3649.11,65.621554,13.291557,13.325,65.625, ,flow ok, ,NRT,calibrated
1115,Kvenna,Skien,Kvenna,1002,NO,822.26,822.83,60.01842,7.865456,7.925,60.025, ,flow ok, ,NRT,calibrated
1119,Kjølemo,Mandal,Mandal,1002,NO,1757.7,1797.15,58.120242,7.52813,7.525,58.125, ,flow ok, ,NRT,calibrated
1123,Junkerdalselv,Saltelva,Junkerdal,1002,NO,421.98,429.24,66.814798,15.410688,15.425,66.825, ,flatliner very short  no need to clean, ,NRT,calibrated
1128,Hugdal bru,Gaula (Melhus),Sogna,1002,NO,546.17,538.8,62.994066,10.246435,10.225,62.975, ,flow ok, ,NRT,calibrated
1131,Holmfoss i Numedalslågen,Lagen,Lagen,1002,NO,5201.8,5211.09,59.189643,9.993582,10.025,59.175, ,flow ok, ,NRT,calibrated
1132,Håkkadalbrua,Byaelva,Byaelva,1002,NO,2141.01,2089.33,64.020191,11.503843,11.525,64.025, ,flow ok, ,NRT,calibrated
1140,Hegra bru,Stjørdal,Stjørdal,1002,NO,1873.48,1877.6,63.461762,11.1156,11.125,63.475, ,flow ok, ,NRT,calibrated
1141,Heisel,Otra,Otra,1002,NO,3687.09,3688.4,58.247549,7.951435,7.975,58.275, ,influenced by reserv, ,NRT,calibrated
1145,Daugavpils,Daugava,Daugava,1027,LV,64500,64524.06,55.8613,26.5211,26.575,55.875, ,  CLEAN remove outlier in 2019, ,efas,calibrated
1148,Jēkabpils,Daugava,Daugava,1027,LV,70500,70527,56.4976,25.8915,25.975,56.475, , , ,efas,calibrated
1152,Sīļi,Daugava,Dubna,1027,LV,2060,2023.28,56.3414,26.3459,26.325,56.325, , CLEAN  outlier end 2023,Not enough discarge data available for calibration period/outlier,efas,calibrated
1153,Lubāna,Daugava,Aiviekste,1027,LV,6510,6710.84,56.9057,26.7151,26.775,56.925, , , ,efas,calibrated
1154,Aiviekstes HES,Daugava,Aiviekste,1027,LV,8640,8697.71,56.6393,25.9316,26.025,56.675, , , ,efas,calibrated
1155,Lielpeči,Daugava,Ogre,1027,LV,1660,1714.46,56.8051,24.7153,24.775,56.825, , , ,efas,calibrated
1158,Sant Sadurni d Anoia,Llobregat,Anoia,1037,ES,720.03,694.76,41.443497,1.788188,1.775,41.475, ,flow ok, ,NRT,calibrated
1159,Castellbell i el Vilar,Llobregat,Llobregat,1037,ES,3326.85,3383.98,41.646562,1.858397,1.875,41.675, ,flow ok, ,NRT,calibrated
1163,Balsareny,Llobregat,Llobregat,1037,ES,1022.12,1010.33,41.859536,1.880218,1.875,41.875, ,flow ok, ,NRT,calibrated
1168,Sant Vicenc dels Horts (Canal de la Dreta),Llobregat,Llobregat,1037,ES,4842,4867.08,41.388761,2.022151,2.025,41.425, ,flow ok, ,NRT,calibrated
1172,Ciudad Rodrigo,Douro,Agueda,1039,ES,1087.92,1107,40.603763,-6.563164,-6.525,40.575, ,flow regulated, ,NRT,calibrated
1174,Peral De Arlanza,Douro,Arlanza,1039,ES,2420.85,2459.98,42.0789,-4.07942,-4.075,42.075, ,flow ok, ,NRT,calibrated
1175,Celada del Camino,Douro,Arlanzon,1039,ES,1689.99,1761.53,42.2552,-3.92801,-3.875,42.275, , , ,NRT,calibrated
1178,Palencia,Douro,Carrion,1039,ES,2255.19,2306.06,42.363,-4.55829,-4.575,42.075, , , ,NRT,calibrated
1179,Garray-Soria,Douro,Douro,1039,ES,1458.86,1382.49,41.797096,-2.454961,-2.425,41.775, , , ,NRT,calibrated
1180,San Miguel del Pino,Douro,Douro,1039,ES,36595.1,36757.61,41.504113,-4.930566,-4.925,41.525, ,flow ok, ,NRT,calibrated
1185,Castropepe,Douro,Esla,1039,ES,6781.84,6971.06,41.974286,-5.636551,-5.625,41.975, , , ,NRT,calibrated
1188,Cordovilla,Douro,Pisuerga,1039,ES,4218.4,4238.26,42.1305,-4.249515,-4.225,42.125, , , ,NRT,calibrated
1191,Secos,Douro,Porma,1039,ES,950.43,998.57,42.601108,-5.4051,-5.425,42.575, , , ,NRT,calibrated
1192,Rabal,Douro,Tamega,1039,ES,776,713.84,41.848632,-7.435275,-7.425,41.875, , , ,NRT,calibrated
1195,Stenudden,Pite,Tjeggelvas,1014,SE,2420.2,2373.99,66.535512,17.659015,17.775,66.525, ,res bellow/  lake IN glofas, ,NRT,calibrated
1196,Mörrum,Morrumsan,Morrumsan,1014,SE,3360.5,3427.54,56.194506,14.749482,14.775,56.225, ,flow ok, ,NRT,calibrated
1198,Ersbo,Dal,Goralven,1014,SE,1103.23,1114.95,61.309466,13.008137,12.975,61.325, ,flow ok, ,NRT,calibrated
1199,Getebro,Alsteran,Alsteran,1014,SE,1332.7,1386.04,57.009086,16.162713,16.175,57.025, ,flow ok, ,NRT,calibrated
1200,Möckeln,Helge a,Helge a,1014,SE,1026,1073.92,56.663968,14.122144,14.125,56.675, , , ,NRT,calibrated
1201,Ytterholmen,Ranealven,Livasalven,1014,SE,1012,971.69,66.170754,21.807666,21.825,66.175, ,flow ok, ,NRT,calibrated
1202,Kukasjärvi,Kukasjarvi,Kukasjarvi,1014,SE,494.3,511.89,66.113414,23.319707,23.325,66.125, , , ,NRT,calibrated
1205,Sundstorp,Gota,Lidan,1014,SE,687.7,673.14,58.321865,13.04062,13.075,58.325, ,flow ok, ,NRT,calibrated
1206,Hallbosjön,Nykopingsan,Vrenaan,1014,SE,1992.3,2518.44,58.859044,16.699135,16.675,58.875, ,many gaps after 2012, ,HIST,calibrated
1207,Kaalasjärvi,Kalix,Kaalasjarvi,1014,SE,1472.5,1476.12,67.766094,19.975596,19.925,67.775, ,flow ok, ,NRT,calibrated
1209,Västersel,Moalven,Moalven,1014,SE,1465.2,1465.09,63.433359,18.298032,18.325,63.425, ,flow ok, ,NRT,calibrated
1210,Strömfors,Skellefte,Malan,1014,SE,678.7,754.27,65.129289,18.954126,18.875,65.125, , , ,NRT,calibrated
1220,Nissafors 2,Nissan,Nissan,1014,SE,825.8,978.13,57.418558,13.628377,13.675,57.525, , ,-/keeping because only station,NRT,calibrated
1223,Fyrås,Indalsalven,Ammeran,1014,SE,2428.4,2215.55,63.516985,15.389521,15.425,63.475, ,flow ok, ,NRT,calibrated
1228,Hammarby 2,Norrstrom,Jarlean,1014,SE,891.4,896.2,59.534358,15.113585,15.125,59.525, ,influenced by reserv, ,NRT,calibrated
1231,Åsbro 3,Viskan,Viskan,1014,SE,2160.2,2117.62,57.239762,12.31002,12.325,57.275, ,flow ok, ,NRT,calibrated
1235,Konstdalsströmmen,Testeboan,Ostersjon,1014,SE,989.8,949.53,60.861162,16.809291,16.825,60.825, ,flow ok, ,NRT,calibrated
1238,Hassela,Harmangersan,Edean,1014,SE,651.2,667.66,62.087329,16.784631,16.725,62.075, ,flow ok, ,NRT,calibrated
1240,Byske,Byske,Byske,1014,SE,3620.2,3628.16,64.955664,21.183086,21.175,64.975, ,flow ok, ,NRT,calibrated
1250,Fryele,Lagan,Haran,1014,SE,593.8,568.84,57.264825,14.128626,14.125,57.275, ,strange flow second semester 2021, ,NRT,calibrated
1260,Torrböle 2,Ore,Ore,1014,SE,2859,2607.22,63.702914,19.594259,19.625,63.675, ,flow ok, ,NRT,calibrated
1266,Río Ladra en Begonte,Minho,Ladra,1036,ES,830.275,857.13,43.148537,-7.690334,-7.725,43.175, ,flow ok, ,NRT,calibrated
1269,Río Neira en Paramo (o),Minho,Neira,1036,ES,832.0588,771.79,42.871826,-7.527617,-7.475,42.875, ,flow ok, ,NRT,calibrated
1290,Río Avia en Ribadavia,Minho,Avia,1036,ES,670.8338,639.79,42.290153,-8.141906,-8.125,42.325, ,flow ok,Location uncertain low quality data/Regulated,NRT,calibrated
1291,Río Miño en Salvaterra do Miño,Minho,Minho,1036,ES,15551.8438,15654.44,42.08093,-8.493114,-8.475,42.075, ,influenced by reservoir,Not enough discarge data available for calibration period  Extremely large oscillations/Regulated,NRT,calibrated
1300,Río Arnoia en Pontefreixo,Minho,Arnoia,1036,ES,532.58,596.27,42.201118,-7.969976,-7.925,42.175, ,flow ok strange LDD,Close to 1279/Close to 1279,NRT,calibrated
1308,Crnece,Danube,Drava,1005,SI,12059.98,12094.81,46.586993,15.018159,14.975,46.625, ,flow ok outlier 2014 2015 2018,dams  large oscillations/Regulated,NRT,calibrated
1311,Rahiv,Danube,Tisza,1044,UA,1070,1116.97,48.061111,24.212222,24.225,48.075, ,flow ok, ,efas,calibrated
1321,Mukacheve,Danube,Latorica,1044,UA,1360,1372.67,48.443611,22.718056,22.725,48.425, ,flow ok, ,efas,calibrated
1324,Zaricheve,Danube,Uzh,1044,UA,1280,1303.7,48.771111,22.501389,22.525,48.775, ,flow ok,close to 1325/close to 1325,efas,calibrated
1327,Chernivtsi,Danube,Prut,1044,UA,6890,6991.42,48.311111,25.920556,25.875,48.325, ,flow ok, ,efas,calibrated
1328,Usteriky,Danube,Cheremosh,1044,UA,1500,1514.8,48.116389,25.011944,24.975,48.125, ,flow ok, ,efas,calibrated
1330,Rozdol,Dniester,Dniester,1044,UA,5700,5838.52,49.433611,24.072222,24.075,49.425, , , ,efas,calibrated
1332,Galych,Dniester,Dniester,1044,UA,14700,14819.19,49.126389,24.743056,24.725,49.125, , , ,efas,calibrated
1334,Zalishyky,Dniester,Dniester,1044,UA,24600,24706.03,48.636667,25.734167,25.725,48.625, , , ,efas,calibrated
1337,Verhne Synyovydne,Dniester,Stryi,1044,UA,2400,2400.19,49.104444,23.607778,23.575,49.125, , , ,efas,calibrated
1339,Yasenytsya,Dniester,Stryi,1044,UA,1020,1098.2,49.204646,23.153688,23.175,49.225, , , ,efas,calibrated
1340,Zarichne,Dniester,Svicha,1044,UA,1280,1344.73,49.176389,24.088611,24.075,49.175, , , ,efas,calibrated
1342,Chortkiv,Dniester,Siret,1044,UA,3170,3300.59,49.008889,25.799722,25.775,49.025, , , ,efas,calibrated
1343,Lytovezh,Vistula,Western Bug,1044,UA,6740,6778.23,50.618611,24.185,24.225,50.625, , , ,efas,calibrated
1344,Kamyanka Buzhska,Vistula,Western Bug,1044,UA,2350,2338.08,50.096667,24.373889,24.375,50.075, ,flow ok, ,efas,calibrated
1346,Lutsk,Dnieper,Styr,1044,UA,7200,7269.594624,50.743889,25.313056,25.325,50.725, , , ,efas,calibrated
1349,Yampil,Dnieper,Horyn,1044,UA,1400,1439.450368,49.965278,26.2475,26.225,49.975, ,flow ok, ,efas,calibrated
1350,Ozenin,Dnieper,Horyn,1044,UA,5860,5792.099328,50.426389,26.54,26.525,50.475, ,flow ok, ,efas,calibrated
1351,Derazhne,Dnieper,Horyn,1044,UA,9160,9020.189696,50.861667,26.054444,26.075,50.875, ,flow ok, ,efas,calibrated
1353,Novograd-Volynskyi,Dnieper,Sluch,1044,UA,7460,7545.002496,50.585556,27.637222,27.625,50.575, ,flow ok, ,efas,calibrated
1354,Sarny,Dnieper,Sluch,1044,UA,13300,13506.61939,51.341389,26.648333,26.625,51.325, ,flow ok, ,efas,calibrated
1356,Chooz,Meuse,Meuse,1046,BE,10120,10231.82,50.092132,4.806518,4.775,50.075, ,flow ok, ,HIST,calibrated
1360,Salzinnes-Ronet,Meuse,Sambre,1046,BE,2841.801,2874.8,50.460043,4.832911,4.825,50.475, , , ,NRT,calibrated
1361,Tournai,Scheldt,Scheldt,1046,BE,4922.087,4992.88,50.608515,3.390781,3.375,50.625, , , ,HIST,calibrated
1362,Ballathie,Tay,Tay,1045,UK,4587,4575.59,56.51441,-3.38696,-3.375,56.525, , , ,NRT,calibrated
1363,Boat O Brig,Spey,Spey,1045,UK,2861.2,2878.08,57.55104,-3.14039,-3.125,57.575, , , ,NRT,calibrated
1367,Daldowie,Clyde,Clyde,1045,UK,1903.1,2015.65,55.82999,-4.12195,-4.125,55.825, , , ,NRT,calibrated
1368,Ellon,Ythan,Ythan,1045,UK,523,535.26,57.36377,-2.09002,-2.075,57.375, , , ,NRT,calibrated
1369,Forres,Findhor,Findhorn,1045,UK,781.9,787.81,57.60477,-3.64408,-3.675,57.525, , , ,NRT,calibrated
1371,Kinkell Bridge,Earn,Earn,1045,UK,590.5,636.5,56.33019,-3.72699,-3.775,56.325, , , ,NRT,calibrated
1372,Moy Bridge,Conon,Conon,1045,UK,961.8,964.91,57.55658,-4.53997,-4.575,57.575, , , ,NRT,calibrated
1373,Muiresk,Deveron,Deveron,1045,UK,954.9,919.18,57.53767,-2.49353,-2.525,57.525, , , ,NRT,calibrated
1374,Ness-side,Ness,Ness,1045,UK,1839.1,1852.55,57.45454,-4.25985,-4.225,57.475, , , ,NRT,calibrated
1376,Parkhill,Don,Don,1045,UK,1273,1260.37,57.21832,-2.18759,-2.225,57.225, , , ,NRT,calibrated
1377,Sprouston,Tweed,Tweed,1045,UK,3330,3355.51,55.61161,-2.39482,-2.425,55.575, , , ,NRT,calibrated
1378,Woodend,Dee,Dee,1045,UK,1370,1369.5,57.05013,-2.60357,-2.725,57.075, , , ,NRT,calibrated
1400,Liscarton,Boyne,Blackwater (Kells),1029,IE,699.7492,678.37,53.663269,-6.720332,-6.725,53.675, , , ,NRT,calibrated
1401,Slane Castle,Boyne,Boyne,1029,IE,2460.27,2450.43,53.707212,-6.562423,-6.575,53.675, , , ,NRT,calibrated
1402,Scarawalsh,Slaney,Slaney,1029,IE,1030.7536,957.05,52.548513,-6.550222,-6.575,52.575, , , ,NRT,calibrated
1403,Royal Oak,Barrow,Barrow,1029,IE,2419.4036,2350.37,52.700198,-6.981458,-6.975,52.675, , , ,NRT,calibrated
1407,Brownsbarn,Barrow,Nore,1029,IE,2418.266,2460.61,52.50077,-7.0917,-7.075,52.525, , , ,NRT,calibrated
1408,Cahir Park,Suir,Suir,1029,IE,1582.6908,1545.55,52.357673,-7.922937,-7.925,52.375, , , ,NRT,calibrated
1409,Clonmel,Suir,Suir,1029,IE,2143.6676,2152.56,52.351525,-7.694598,-7.675,52.375, , , ,HIST,calibrated
1410,Ballyduff,Munster Blackwater,Munster Blackwater,1029,IE,2333.6908,2454.41,52.144345,-8.051952,-8.075,52.125, , , ,NRT,calibrated
1412,Castleroberts,Maigue,Maigue,1029,IE,806.0444,794.38,52.543441,-8.767416,-8.775,52.525, , , ,NRT,calibrated
1414,Ferbane,Shannon,Brosna,1029,IE,1162.7611,1223.62,53.269937,-7.828063,-7.775,53.275, , , ,NRT,calibrated
1415,Banagher,Shannon,Shannon,1029,IE,7980.4136,7988.91,53.193787,-7.993647,-8.025,53.175, ,only peaks....we try....last station before river mouth, ,HIST,calibrated
1416,Bellagill,Shannon,Suck,1029,IE,1207.2244,1105.08,53.361687,-8.238554,-8.225,53.375, , , ,NRT,calibrated
1417,Ballymahon,Shannon,Inny,1029,IE,1098.7805,1029.56,53.562867,-7.757923,-7.775,53.575, , , ,NRT,calibrated
1419,Rahans,Moy,Moy,1029,IE,1974.7592,1972.53,54.103927,-9.157683,-9.125,54.075, , , ,NRT,calibrated
1420,Butlers Bridge,Erne,Annalee,1029,IE,771.7296,801.81,54.041879,-7.377088,-7.325,54.025, , , ,NRT,calibrated
1423,Agroal,Tagus,Nabao,1023,PT,608.49,570.57,39.679,-8.437,-8.425,39.675, ,only his flow ok,close to 1434/close to 1434,efas,calibrated
1430,Cidadelhe,Douro,Coa,1023,PT,1743.1,1810.56,40.915,-7.101,-7.125,40.875, ,flow ok, ,efas,calibrated
1433,Escalhão,Douro,Agueda,1023,PT,2537.08,2538.95,40.961,-6.875,-6.875,40.925, ,flow ok, ,efas,calibrated
1436,Fridão,Douro,Tamega,1023,PT,2616.41,2541.92,41.322,-8.023,-7.975,41.375, ,flow ok, ,efas,calibrated
1439,Moinho Da Gamitinha,Sado,Sado,1023,PT,2713.16,2660.48,38.063,-8.404,-8.375,38.025, ,remove 2009 only his, ,efas,calibrated
1441,Moinho Novo,Tagus,Sor,1023,PT,647.05,622.19,39.228,-8.029,-8.025,39.225,EHDCC-10677,CLEAN remove zeros after 2010, ,efas,calibrated
1447,Nelas,Mondego,Mondego,1023,PT,1125.54,1222.42,40.503,-7.823,-7.825,40.525, , , ,efas,calibrated
1448,Oeiras,Guadiana,Ribera de Oeiras,1023,PT,467.53,465.64,37.664,-7.712,-7.725,37.675, , , ,efas,calibrated
1450,Ponte Alvalade Campilhas,Sado,Ribeira de Campilhas,1023,PT,698.32,732.5,37.932,-8.404,-8.425,37.925, ,dont know if zeros or flatliners, ,efas,calibrated
1451,Ponte Alvalade Sado,Sado,Sado,1023,PT,669.75,684.72,37.941,-8.383,-8.375,37.925, ,only his flow ok, ,efas,calibrated
1452,Ponte Cabouco,Mondego,Ceira,1023,PT,502.81,473.06,40.178,-8.372,-8.325,40.175, ,remove outlier in 2010, ,efas,calibrated
1454,Ponte Da Barca,Lima,Lima,1023,PT,1728.77,1703.16,41.809,-8.421,-8.375,41.825, ,influenced by reserv, ,efas,calibrated
1458,Ponte Mocate,Mondego,Arunca,1023,PT,465.61,450.75,40.082,-8.637,-8.625,40.075, , , ,efas,calibrated
1459,Ponte Pinelo,Douro,Ribeira do Macas,1023,PT,543.72,507.75,41.644,-6.578,-6.575,41.675, ,flow ok, ,efas,calibrated
1464,Ponte Vila Formosa,Tagus,Riberia da Raia,1023,PT,664.81,646.75,39.216,-7.784,-7.775,39.225, ,only his flow ok, ,efas,calibrated
1465,Pulo Do Lobo,Guadiana,Guadiana,1023,PT,61884.92,61874.32,37.803,-7.633,-7.625,37.825, ,only hist data flow ok, ,efas,calibrated
1470,Rebordelo,Douro,Rabacal,1023,PT,868.61,829.15,41.749,-7.174,-7.175,41.725, ,flow ok, ,efas,calibrated
1472,Secarias,Mondego,Alva,1023,PT,512.16,519.26,40.249,-8.037,-8.025,40.275, , , ,efas,calibrated
1473,Segura,Tagus,Erges,1023,PT,981.66,1042.08,39.815,-6.983,-6.975,39.825, ,only his flow ok, ,efas,calibrated
1475,Torrão Do Alentejo,Sado,Ribeira do Xarrama,1023,PT,468.35,436.33,38.299,-8.229,-8.225,38.275, , , ,efas,calibrated
1479,Vendinha,Guadiana,Degebe,1023,PT,821.31,797.58,38.46,-7.678,-7.675,38.475, ,only hist data flow ok, ,efas,calibrated
1480,Vinhais (QUINTA Ranca),Douro,Tuela,1023,PT,478.54,460.62,41.81,-6.995,-6.975,41.825, , , ,efas,calibrated
1482,Ashton Weir,Mersey,Mersey,1038,UK,660,758.22,53.438308,-2.344072,-2.275,53.425, , , ,NRT,calibrated
1484,Evesham,Severn,Avon,1038,UK,2210,2165.69,52.092165,-1.942876,-1.925,52.075, , , ,HIST,calibrated
1485,Montford,Severn,Severn,1038,UK,2025,2032.99,52.724474,-2.872198,-2.875,52.725, , , ,NRT,calibrated
1486,Tenbury,Severn,Teme,1038,UK,1134.4,1135.22,52.313207,-2.591539,-2.625,52.325, ,plot probably used only, ,HIST,calibrated
1487,Saxons Lode,Severn,Severn,1038,UK,6850,6846.51,52.049661,-2.200744,-2.225,52.075, , , ,NRT,calibrated
1490,Buildwas,Severn,Severn,1038,UK,3717,3722.73,52.636354,-2.524962,-2.575,52.625, , , ,NRT,calibrated
1492,Shardlow,Trent,Trent,1038,UK,4400,4431.86,52.865431,-1.335368,-1.375,52.825, , ,Not enough discarge data available for calibration period/some zeros,NRT,calibrated
1494,Kings Bromley,Trent,Trent,1038,UK,1229,1218.8,52.75692,-1.805399,-1.825,52.775, , , ,NRT,calibrated
1496,North Muskham,Trent,Trent,1038,UK,8231,8322.08,53.131855,-0.803653,-0.825,53.125, , , ,NRT,calibrated
1499,Kegworth,Trent,Soar,1038,UK,1292,1279.63,52.831898,-1.273539,-1.225,52.775, , , ,NRT,calibrated
1509,Salisbury Harnham Bridge,Avon (Hampshire),Avon (Hampshire),1038,UK,NULL,1302.68,51.061234,-1.794461,-1.775,51.075, , remove zeros,Not enough discarge data available for calibration period  It cannot be located correctly  Do not use/low quality data  Site is now closed as a flow gauging station,NRT,calibrated
1514,Wimborne A31,Stour,Stour,1038,UK,NULL,977.9,50.789681,-1.971312,-1.975,50.775, , ,Not enough discarge data available for calibration period/Gauge is designed for medium to high flows. Bypassing is a problem at high stages therefore flows are thought to be between +/- 20% at the high extremes,NRT,calibrated
1534,Samlesbury,Ribble,Ribble,1038,UK,1145,1188.36,53.76911,-2.624715,-2.625,53.775, , , ,HIST,calibrated
1536,Great Corby,Eden,Eden,1038,UK,1373,1402.86,54.890119,-2.830743,-2.825,54.875, , , ,HIST,calibrated
1544,Wheatley,Thames,Thame,1038,UK,533.8,595.12,51.740637,-1.115198,-1.025,51.725, ,flow ok,Not enough discarge data available for calibration period/some zeros,NRT,calibrated
1546,Newbury,Thames,Kennet,1038,UK,548.1,599.64,51.401605,-1.323874,-1.375,51.375, ,flow ok, ,NRT,calibrated
1558,Guildford,Thames,Wey,1038,UK,689.6,739.45,51.236036,-0.578011,-0.575,51.225, ,flow ok, ,NRT,calibrated
1565,Kingston,Thames,Thames,1038,UK,9948,9908.54,51.415005,-0.308869,-0.325,51.375, ,flow ok, ,NRT,calibrated
1575,Costessey Mill Sluice,Yare,Wensum,1038,UK,NULL,676.36,52.668256,1.218212,1.225,52.675, ,flow ok, ,NRT,calibrated
1589,Skelton,Ouse,Ouse,1038,UK,3315,3175.42,53.991515,-1.135153,-1.125,53.975, ,flow ok, ,efas,calibrated
1592,Bywell,Tyne,Tyne,1038,UK,2175.6,2170.52,54.94992,-1.940633,-1.925,54.925, , , ,efas,calibrated
1604,Novoselki,Daugava,Usvyacha,1053,BY,2150,2009.39,55.55732,30.84156,30.825,55.575, , , ,efas,calibrated
1605,Bocheykovo,Daugava,Ulla,1053,BY,3330,3352.04,55.01528,29.15428,29.125,55.025, ,nrt seems outlier in 2017,Not enough discarge data available for calibration period  Wrong coord or wrong uparea from provider/regulated,efas,calibrated
1606,Obol,Daugava,Obol,1053,BY,2520,2546.26,55.35479,29.28028,29.375,55.375, , , ,efas,calibrated
1607,Sharkovshchina,Daugava,Dysna,1053,BY,4720,4986.74,55.35716,27.44664,27.425,55.325, , , ,efas,calibrated
1608,Dernovichi,Daugava,Drysa,1053,BY,4580,4502.19,55.70762,28.44777,28.425,55.725, , , ,efas,calibrated
1609,Stolbtsy,Neman,Neman,1053,BY,3070,2956.78,53.47973,26.71434,26.775,53.425, , , ,efas,calibrated
1610,Belitsa,Neman,Neman,1053,BY,16700,16886.2,53.63797,25.31799,25.325,53.625, , , ,efas,calibrated
1611,Mosty,Neman,Neman,1053,BY,25600,27519.12,53.40779,24.52003,24.525,53.425, , , ,efas,calibrated
1612,Lubinyata,Neman,Gavya,1053,BY,920,1000.15,53.98995,25.6437,25.625,53.975, ,flow ok, ,efas,calibrated
1613,Slonim,Neman,Shchara,1053,BY,4860,4863.83,53.10178,25.32512,25.325,53.075, ,data not sure about data quality steps in 2018 and 2019, ,efas,calibrated
1614,Studenets,Neman,Ross,1053,BY,974,987.64,53.29579,24.41512,24.425,53.275, ,remove outliers end 2017, ,efas,calibrated
1615,Dinevichi,Neman,Svisloch,1053,BY,700,744.74,53.23898,23.86211,23.875,53.225, ,remove outliers end 2018, ,efas,calibrated
1616,Sakhkombinat,Neman,Kotra,1053,BY,2000,1982.67,53.58253,24.19165,24.175,53.575, , , ,efas,calibrated
1617,Steshitsy,Neman,Neris,1053,BY,1230,1242.9,54.56296,27.39286,27.425,54.575, , , ,efas,calibrated
1618,Mikhalishki,Neman,Neris,1053,BY,10300,10594.34,54.81492,26.16599,26.175,54.825, , , ,efas,calibrated
1620,Kamenets,Vistula,Lesnaya,1053,BY,1920,1925.31,52.40544,23.80496,23.825,52.425, , , ,efas,calibrated
1622,Orsha,Dnieper,Dnieper,1053,BY,18000,17949.45843,54.5073,30.43048,30.475,54.525, , , ,efas,calibrated
1623,Mogilev,Dnieper,Dnieper,1053,BY,20800,20678.13786,53.97999,30.39505,30.425,53.975, , , ,efas,calibrated
1624,Zhlobin,Dnieper,Dnieper,1053,BY,30300,30188.81024,52.92921,30.04568,30.075,52.875, , , ,efas,calibrated
1625,Rechitsa,Dnieper,Dnieper,1053,BY,58200,58138.03418,52.35576,30.44987,30.475,52.325, ,remove outliers 2018 min values, ,efas,calibrated
1626,Gorodishche,Dnieper,Drut,1053,BY,2850,2784.261888,53.73259,29.82023,29.825,53.725, ,flow ok, ,efas,calibrated
1627,Borisov,Dnieper,Berezina,1053,BY,5690,5674.811392,54.23517,28.50157,28.525,54.225, ,flow ok, ,efas,calibrated
1628,Bobruisk,Berezina,Berezina,1053,BY,20300,19900.63718,53.17798,29.24917,29.225,53.175, ,flow ok, ,efas,calibrated
1630,Krichev,Dnieper,Sozh,1053,BY,10200,10087.69536,53.70468,31.74431,31.725,53.725, ,flow ok, ,efas,calibrated
1631,Slavgorod,Dnieper,Sozh,1053,BY,17700,17653.12922,53.44214,31.01301,31.025,53.425, , , ,efas,calibrated
1632,Gomel,Dnieper,Sozh,1053,BY,38900,38233.11,52.46142,31.0817,31.075,52.425, ,flow ok, ,efas,calibrated
1633,Mstislavl,Dnieper,Vihra,1053,BY,2200,2171.49184,54.02544,31.76049,31.775,54.025, ,flow ok, ,efas,calibrated
1634,Letyagi,Dnieper,Pronya,1053,BY,4570,4689.345024,53.60703,30.93714,30.975,53.575, ,flow ok, ,efas,calibrated
1635,Svetilovichi,Dnieper,Besed,1053,BY,5010,4957.452288,52.79352,31.32391,31.325,52.825, ,flow ok, ,efas,calibrated
1636,Dobrush,Dnieper,Iput,1053,BY,10100,10420.75443,52.40803,31.30855,31.275,52.425, ,flow ok, ,efas,calibrated
1637,Pinsk,Dnieper,Prypiat,1053,BY,NULL,10669.61613,52.07437,26.15771,26.175,52.075, ,flow ok, ,efas,calibrated
1638,Chernichi,Dnieper,Prypiat,1053,BY,74000,75019.68998,52.0793,27.83026,27.825,52.075, ,flow ok, ,efas,calibrated
1639,Mozyr,Dnieper,Prypiat,1053,BY,101000,103283.2123,52.05513,29.25131,29.275,52.075, ,flow ok, ,efas,calibrated
1642,M.Vikorovichi,Dnieper,Goryn,1053,BY,27000,26950.92838,51.86428,26.87467,26.875,51.875, ,flow ok, ,efas,calibrated
1643,Mokrovo,Dnieper,Lan,1053,BY,2160,1933.495936,52.23644,27.2519,27.275,52.225, ,flow ok, ,efas,calibrated
1644,Lenin,Dnieper,Slutch,1053,BY,4480,4493.110784,52.3301,27.49868,27.475,52.325, ,flow ok, ,efas,calibrated
1645,Krasnoberezhie,Dnieper,Ubort,1053,BY,5260,5215.379456,51.8765,28.44565,28.425,51.875, , , ,efas,calibrated
1647,1-ya Slobodka,Dnieper,Ptich,1053,BY,9160,9458.270208,52.30104,28.81718,28.825,52.325, , , ,efas,calibrated
1664,Leposaviç,Danube,Ibar,1048,XK,4701,4747.97,43.097431,20.799481,20.825,43.075, ,flow ok, ,efas,calibrated
1671,Lluzhan,Danube,Lab,1048,XK,694,771.21,42.819692,21.168183,21.175,42.825, ,flow ok,No discharge data available for calibration period/It continues to be a stable online station  with data on water level and flow - no discharge data,HIST,calibrated
1681,Jordan - Obstacle Bridge,Jordan / Dead Sea,Jordan,1052,IL,1404,1498.286848,33.040368,35.631834,35.625,33.025, ,probably identical efasid 7175 and 1681, , ,calibrated
1683,Hadera - Gan Shemu'el,Hadera,Hadera,1052,IL,579,599.83104,32.439029,34.952961,34.975,32.425, ,identical efas 1683 and 7222 better match with the LDD area, ,efas,calibrated
1688,Lakhish-Ad Halom Park,Lakhish,Lakhish,1052,IL,996,972.876672,31.786795,34.672294,34.675,31.775, ,identical efas 7184 and 1688 and 4403  better area match, , ,calibrated
1694,Hiyon - 40 Road,Hiyon,Hiyon,1052,IL,754,775.617856,30.197555,35.004758,34.975,30.175, , , ,HIST,calibrated
1697,Gorican,Danube,Mur,1031,HR,13148,13263.2,46.419556,16.693,16.675,46.425, ,flow ok, ,NRT,calibrated
1700,Rozl'oty,Dnieper,Desna,1044,UA,36300,36251.38995,51.69984,33.170417,33.125,51.725, ,HIST  i think that merging creates problems, ,efas,calibrated
1702,Chernihiv,Dnieper,Desna,1044,UA,81400,81380.48307,51.476281,31.308572,31.275,51.475, ,HIST  i think that merging creates problems, ,efas,calibrated
1703,Litky,Dnieper,Desna,1044,UA,88500,88605.73696,50.698998,30.724795,30.725,50.725, ,HIST  i think that merging creates problems, ,efas,calibrated
1704,Snovs'k,Dnieper,Snov,1044,UA,7140,7022.304256,51.837297,31.928082,31.925,51.825, ,HIST  i think that merging creates problems, ,efas,calibrated
1705,Mutyn,Dnieper,Seym,1044,UA,25600,25592.73574,51.414381,33.481293,33.475,51.425, , some flatliners after 2018 data, ,efas,calibrated
1706,Nedanchychi,Dnieper,Dnieper,1044,UA,103000,103827.1201,51.50007,30.587199,30.575,51.525, , some flatliners after 2018 data, ,efas,calibrated
1711,Lysychans'k,Don,Seversky Donets,1044,UA,52400,52247.98618,48.922934,38.440411,38.475,48.925, ,CLEAN remove flatliners,Out of 5km XDOM/few months with zeros, ,calibrated
1714,Ivankiv,Dnieper,Teteriv,1044,UA,12400,12427.52102,50.931181,29.908118,29.925,50.925, , CLEAN see plots outliers in 2018 and 2019 max values, ,efas,calibrated
1717,Lubny,Dnieper,Sula,1044,UA,14200,14181.28179,50.007083,33.013361,33.025,50.025, , , ,efas,calibrated
1718,Sumy,Dnieper,Psel,1044,UA,7770,7641.719296,50.905902,34.803272,34.775,50.875, , , ,efas,calibrated
1720,Zapsillya,Dnieper,Psel,1044,UA,21800,21869.45536,49.211238,33.573446,33.575,49.225, , CLEAN flatliners 2018 and 2020, ,efas,calibrated
1722,Kobelyaky,Dnieper,Vorskla,1044,UA,13500,13449.59078,49.143856,34.210403,34.225,49.175, , remove 2018 still have more than 20 years, ,efas,calibrated
1723,Tsarychanka,Dnieper,Oril,1044,UA,9100,8929.867776,48.944795,34.500148,34.475,48.975, , , ,efas,calibrated
1724,Kocherizhky,Dnieper,Samara,1044,UA,19800,20153.58362,48.659443,35.659976,35.675,48.625, ,  flow ok remove peak 2018 and flatliner 2020, ,efas,calibrated
1727,Lelitka,Southern Bug,Southern Bug,1044,UA,4000,4111.678464,49.554394,27.898869,27.875,49.575, ,HIST  no merge  CLEAn remove data after 2016, ,efas,calibrated
1730,Ripač,Danube,Una,1059,BA,NULL,1746.54,44.772222,15.948333,15.975,44.775, , , ,NRT,calibrated
1733,Vrhpolje,Danube,Sana,1059,BA,NULL,994.43,44.689542,16.736633,16.775,44.675, ,only flow ok, ,NRT,calibrated
1740,Merdani,Danube,Lasva,1059,BA,950,955.11,44.134722,17.9125,17.875,44.125, , , ,efas,calibrated
1741,Zavidoviči n/K,Danube,Krivaja,1059,BA,1387,1355.08,44.436111,18.162778,18.225,44.425, , , ,NRT,calibrated
1742,Kaloševič,Danube,Usora,1059,BA,633,684.67,44.646552,17.904282,17.925,44.625, , ,Not enough discarge data available for calibration period/some issues with the rating curve,NRT,calibrated
1743,Karanovac,Danube,Spreca,1059,BA,1828,1723.68,44.696111,18.273611,18.225,44.725, , ,Not enough discarge data available for calibration period/possibly regulated,NRT,calibrated
1744,Goražde,Danube,Drina,1059,BA,5876,5935.42,43.666667,18.973333,18.975,43.625, , ,Not enough discarge data available for calibration period/regulated,NRT,calibrated
1798,BABINO,Vistula,Narew,1024,PL,4240.53,4159.25,53.154167,22.9425,22.925,53.125, ,flow ok, ,efas,calibrated
1799,ŻAGAŃ,Oder,Bobr,1024,PL,4255.04,4376.59,51.618056,15.315833,15.325,51.625, ,flow ok, ,HIST,calibrated
1805,ELGISZEWO,Vistula,Drweca,1024,PL,5019.48,4868.06,53.060833,18.928056,18.875,53.075, ,flow ok, ,NRT,calibrated
1806,CZCHÓW,Vistula,Dunajec,1024,PL,5317.19,5286.39,49.816389,20.681944,20.725,49.825, ,flow ok,Not enough discarge data available for calibration period/regulated,NRT,calibrated
1807,BURZENIN,Oder,Warta,1024,PL,5430.48,5452.48,51.458333,18.838611,18.825,51.425, ,flow ok, ,NRT,calibrated
1809,NOWOGRÓD BOBRZAŃSKI,Oder,Bobr,1024,PL,5581.11,5612.21,51.798611,15.237778,15.225,51.775, ,flow ok, ,NRT,calibrated
1817,LUBARTÓW,Vistula,Wieprz,1024,PL,6389.88,6347.63,51.498056,22.643611,22.625,51.475, ,flow ok, ,NRT,calibrated
1818,NOWE MIASTO,Vistula,Pilica,1024,PL,6716.71,6654.28,51.609167,20.573333,20.525,51.625, , , ,NRT,calibrated
1820,ŻUKÓW,Vistula,Bzura,1024,PL,7071.76,7081.41,52.261944,20.268889,20.275,52.275, ,flow ok, ,NRT,calibrated
1823,LEŻACHÓW,Vistula,San,1024,PL,8348.1,8302.8,50.140278,22.603333,22.575,50.175, ,flow ok, ,NRT,calibrated
1824,BIAŁOBRZEGI,Vistula,Pilica,1024,PL,8664.61,8605.66,51.657778,20.951389,20.925,51.675, ,flow ok, ,NRT,calibrated
1825,SIEROSŁAWICE,Vistula,Vistula,1024,PL,8961.16,9071.55,50.131944,20.456667,20.425,50.125, ,flow ok, ,NRT,calibrated
1826,STRZYŻÓW,Vistula,Western Bug,1024,PL,8991.27,8961.05,50.839444,24.035833,24.075,50.825, ,flow ok, ,NRT,calibrated
1832,JAGODNIKI,Vistula,Vistula,1024,PL,12052.39,12224.3,50.200556,20.681944,20.675,50.175, ,flow ok, ,efas,calibrated
1833,RZUCHÓW,Vistula,San,1024,PL,12177.34,12058.19,50.246944,22.501944,22.525,50.225, ,flow ok, ,NRT,calibrated
1834,DOROHUSK,Vistula,Western Bug,1024,PL,12407.59,12346.14,51.184444,23.806944,23.775,51.175, ,flow ok, ,NRT,calibrated
1835,KRZYŻ,Oder,Noteć,1024,PL,12574.62,12342.5,52.861944,16.001667,16.025,52.875, ,flow ok, ,NRT,calibrated
1836,WŁODAWA,Vistula,Western Bug,1024,PL,14301.8,14168.24,51.551389,23.566389,23.575,51.575, ,flow ok, ,NRT,calibrated
1842,RADOMYŚL,Vistula,San,1024,PL,16837.9,16678.72,50.673611,21.930833,21.875,50.725, ,flow ok, ,NRT,calibrated
1850,KRZYCZEW,Vistula,Western Bug,1024,PL,25595.3,24604.19,52.146944,23.499167,23.525,52.125, ,flow ok, ,NRT,calibrated
1853,MALCZYCE,Oder,Oder,1024,PL,26820.35,27072.02,51.225833,16.493889,16.525,51.225, ,flow ok, ,NRT,calibrated
1854,KOŁO,Vistula,Vistula,1024,PL,30668.67,30741.57,50.504722,21.511111,21.475,50.475, ,flow ok, ,NRT,calibrated
1857,SKWIERZYNA,Oder,Warta,1024,PL,32052.58,31386.04,52.602222,15.501111,15.525,52.625, ,flow ok, ,HIST,calibrated
1858,GŁOGÓW,Oder,Oder,1024,PL,36403.37,36603.71,51.668056,16.092778,16.125,51.675, ,flow ok, ,NRT,calibrated
1859,WYSZKÓW,Vistula,Western Bug,1024,PL,38394.24,37629.25,52.588333,21.452778,21.425,52.575, ,flow ok, ,NRT,calibrated
1861,ANNOPOL,Vistula,Vistula,1024,PL,51498.57,51436.97,50.886111,21.833889,21.825,50.875, ,flow ok, ,NRT,calibrated
1866,PUŁAWY-AZOTY,Vistula,Vistula,1024,PL,57668.06,57550.9,51.445278,21.945278,21.925,51.475, ,flow ok, ,NRT,calibrated
1869,WARSZAWA-NADWILANÓWKA,Vistula,Vistula,1024,PL,84630.04,84637.03,52.190833,21.102778,21.075,52.225, ,flow ok, ,NRT,calibrated
1873,WIDUCHOWA,Oder,Oder,1024,PL,110585.7,114001.49,53.122222,14.382222,14.375,53.075, ,flow ok, ,efas,calibrated
1878,WŁOCŁAWEK,Vistula,Vistula,1024,PL,171764.12,171164.83,52.663333,19.069167,19.125,52.675, ,flow ok after reserv IN glofas, ,NRT,calibrated
1879,TORUŃ,Vistula,Vistula,1024,PL,180390.23,179658.78,53.008056,18.6075,18.575,53.025, ,flow ok, ,NRT,calibrated
1880,FORDON,Vistula,Vistula,1024,PL,186219.05,185343.62,53.14639,18.17,18.175,53.175, ,flow ok, ,NRT,calibrated
1882,GRUDZIĄDZ,Vistula,Vistula,1024,PL,189715.02,188877.28,53.490278,18.745556,18.775,53.525, ,flow ok, ,NRT,calibrated
1883,TCZEW,Vistula,Vistula,1024,PL,193923.06,193999.77,54.08722,18.80556,18.825,54.075, ,flow ok, ,NRT,calibrated
1889,SLOBOZIA,Ialomita,Bratul Borcea,1062,RO,9425,9335.34,44.55,27.4,27.425,44.575, ,only hist flow ok, ,efas,calibrated
1891,OANCEA,Prut,Prut,1062,RO,26800,26837.62,45.916667,28.116667,28.175,45.925, ,only hist flow ok, ,efas,calibrated
1892,SIRET,Siret,Siret,1062,RO,1725,1656.68,47.9,26.033333,26.075,47.975, ,only hist flow ok, ,efas,calibrated
1894,SZEGED,Tisza,Tisza,1062,HU,138408,139008.84,46.25,20.16,20.175,46.275, ,flow ok, ,efas,calibrated
1896,L'Adour à Audon -  010174-010691 00:00,Adour,Adour,1062,FR,4100,3979.98,43.789316,-0.836511,-0.825,43.775, ,flow ok, ,efas,calibrated
1897,L'Adour à Cahuzac-Sur-Adour,Adour,Adour,1062,FR,1290,1263.25,43.640856,-0.019438,-0.025,43.625, ,flow ok, ,efas,calibrated
1898,Le Gave De Pau à Berenx (Pont De Berenx),Adour,Gave de Pau,1062,FR,2575,2622.5,43.508747,-0.853243,-0.825,43.475, ,flow ok, ,efas,calibrated
1900,Le Tarn à Villemur-Sur-Tarn,Garonne,Tarn,1062,FR,9100,9130.76,43.88042,1.495663,1.525,43.825, ,flow ok, ,HIST,calibrated
1901,Le Lot à Faycelles,Garonne,Lot,1062,FR,6840,6740.12,44.556526,2.015668,1.975,44.525, ,flow ok, ,efas,calibrated
1903,L'Isle à Abzac,Dordogne,Isle,1062,FR,3752,3860.67,45.021805,-0.12619,-0.075,45.025, ,flow ok, ,efas,calibrated
1905,La Loire à Villerest,Loire,Loire,1062,FR,6585,6571.7,46.004406,4.044108,4.025,45.975, ,flow ok, ,efas,calibrated
1908,La Vienne à Lussac-Les-Chateaux,Loire,Vienne,1062,FR,5535,5542.84,46.404555,0.701612,0.675,46.375, ,flow ok, ,efas,calibrated
1919,Le Rhone à Lyon (Perrache),Rhone,Rhône,1062,FR,20300,20644.85,45.748116,4.830951,4.875,45.775, ,flow ok, ,HIST,calibrated
1920,Le Rhone à Viviers,Rhone,Rhône,1062,FR,70900,70902.51,44.481317,4.700911,4.725,44.525, ,flow ok, ,HIST,calibrated
1923,L'Isere à Beaumont-Monteux,Rhone,Isere,1062,FR,11800,11830.03,45.017178,4.913408,4.925,45.025, ,influenced by reserv flow ok, ,HIST,calibrated
1925,La Durance à Saint-Paul-Les-Durance (Jouques-Cadarache),Rhone,Durance,1062,FR,11700,11753.37,43.719792,5.7397,5.725,43.675, ,influenced by reserv flow ok, ,HIST,calibrated
1926,L'Yonne à Gurgy,Seine,Yonne,1062,FR,3807,3901.05,47.878302,3.535478,3.575,47.875, ,flow ok, ,HIST,calibrated
1928,L'Yonne à Courlon-sur-Yonne,Seine,Yonne,1062,FR,10700,10787.7,48.330989,3.157618,3.225,48.325, ,flow ok, ,HIST,calibrated
1930,La Marne à la Ferté-sous-Jouarre,Seine,Marne,1062,FR,8818,8915.72,48.945001,3.12157,3.125,48.975, ,still some gaps in 1994 but flow ok, ,HIST,calibrated
1931,La Marne à Gournay-sur-Marne,Seine,Marne,1062,FR,12660,12785.55,48.860672,2.573855,2.625,48.875, ,flow ok, ,HIST,calibrated
1937,LAUCHA,Elbe,Unstrut,1062,DE,6218,6139.54,51.22,11.68,11.675,51.225, ,flow ok, ,efas,calibrated
1938,SMALININKAI,Nemnus,Neman,1062,LT,81200,81458.01,55.07,22.57,22.575,55.075, ,only hist data flow ok, ,efas,calibrated
1939,JONAVA,Nemnus,Neris,1062,LT,24500,24643.81,55.08,24.28,24.275,55.075, ,only hist data flow ok, ,efas,calibrated
1941,HANN.-MUENDEN,Weser,Weser,1062,DE,12442,12657.48,51.42,9.64,9.625,51.425, , , ,efas,calibrated
1942,PORTA,Weser,Weser,1062,DE,19162,19295.41,52.24,8.92,8.925,52.225, , , ,efas,calibrated
1943,AELVKARLEBY KRV,Dalaelven,Dalaelven,1062,SE,28921,28903.11,60.56,17.44,17.425,60.575, ,noisy time seriesafftected by res/lakebut last station before river mouth, ,efas,calibrated
1944,EMSFORS BRUK,Eman,Eman,1062,SE,4446,4584.31,57.14,16.45,16.425,57.175, ,flow ok, ,efas,calibrated
1947,BERGEFORSENS KRV,Indalselven,Indalselven,1062,SE,25761,25773.35,62.52,17.39,17.375,62.525, ,flow influenced by reserv, ,efas,calibrated
1948,VAAJAKOSKI (HAAPAKOSKI),Kymijoki,Leppavesi-Paijanne,1062,FI,17684,17875.19,62.23,25.88,25.875,62.225, ,only hist flow ok, ,efas,calibrated
1949,ANJALA,Kymijoki,Kymi,1062,FI,36275,36382.81,60.7,26.82,26.825,60.725, ,only hist flow ok, ,efas,calibrated
1950,ANGABAECKS KRV,Lagan,Lagan,1062,SE,5480,5394.71,56.49,13.51,13.475,56.475, ,flow influenced by reserv, ,efas,calibrated
1951,SKALLBOELE KRV,Ljungan,Ljungan,1062,SE,12088,12049.73,62.36,16.96,16.975,62.375, ,flow seems a bit influenced by reserv, ,efas,calibrated
1952,LJUSNE STROEMMAR KRV,Ljusnan,Ljusnan,1062,SE,19817,19916.96,61.21,17.08,17.075,61.225, ,flow seems a bit influenced by reserv, ,efas,calibrated
1953,BODENS KRV (+ VATTENVERK. TRANGFORS),Luleaelven,Luleaelven,1062,SE,24924,24516.87,65.81,21.67,21.675,65.775, ,extremely noisyaffected by reservoirbut only station in the basin, ,efas,calibrated
1954,OEVRE STOCKHOLM,Maelaren,Maelaren,1062,SE,22639,22724.63,59.3,18.08,18.075,59.325, ,In reserv IN glofas, ,efas,calibrated
1956,SIKFORS KRV,Piteaelven,Piteaelven,1062,SE,10816,10826.92,65.53,21.21,21.175,65.575, ,flow ok, ,efas,calibrated
1957,KVISTFORSENS KRV,Skellefteaelven,Skellefteaelven,1062,SE,11309,11390.96,64.74,20.86,20.825,64.725, ,affected by reservoir but last station before river mouth, ,efas,calibrated
1958,UMEAE,Umeaelven,Umeaelven,1062,SE,26939,26946.49,63.83,20.25,20.275,63.825, ,flow influenced by reserv, ,efas,calibrated
1960,CORROFIN,Clare,Clare,1062,IE,750,755.42,53.43756,-8.8639,-8.875,53.475, , , ,efas,calibrated
1966,KUKKOLANKOSKI OEVRE,Torne,Torneaelven,1062,SE,33930,39551.08,65.98,24.06,24.075,65.975, ,flow ok, ,efas,calibrated
1967,SCHAERDING,Inn,Inn,1062,AT,25664,24361.37,48.43,13.44,13.425,48.425, ,flow ok,TO UPDATE,efas,calibrated
1970,TRIER UP,Mosel,Moselle,1062,DE,23857,23821.15,49.73,6.62,6.625,49.725, ,flow ok, ,efas,calibrated
1971,RETHEM,Weser,Aller,1062,DE,14730,14585.12,52.78,9.38,9.375,52.775, , , ,efas,calibrated
1973,VERSEN,Ems,Ems,1062,DE,8369,8408.06,52.74,7.24,7.275,52.725, ,flow ok, ,efas,calibrated
1977,MEGEN DORP,Maas,Meuse,1062,NL,28980,29284.32,51.82,5.54,5.525,51.825, ,flow ok, ,efas,calibrated
1978,BRYDEKIRK,R. Annan,Annan,1062,UK,925,938.48,55.02,-3.27,-3.325,55.025, , , ,efas,calibrated
1979,Caton,Lune,Lune,1062,UK,983,979.63,54.081,-2.72,-2.675,54.075, , , ,efas,calibrated
1981,LANGNES,Glomma,Glama,1062,NO,40540,40653.32,59.6,11.11,11.125,59.625, ,flow ok, ,efas,calibrated
1984,HARJAVALTA,Kokemaenjoki,Kokemaenjoki,1062,FI,26117,25437.24,61.2,22.07,22.075,61.325, ,hihly influenced by reserv NOT in glofas, ,efas,calibrated
1985,LAKE LENTUA OUTLET,Oulujoki,Oulujoki,1062,FI,2045,1804.06,64.2,29.58,29.575,64.175, ,only hist flow ok, ,efas,calibrated
1987,KULDIGA,Venta,Venta,1062,LV,8320,8581.01,56.96,21.98,21.975,56.975, ,only HIST flow ok big gap from 1988 to 2024, ,efas,calibrated
1988,VALMIERA,Gauja,Gauja,1062,LV,6280,6786.03,57.55,25.4,25.475,57.525, , , ,efas,calibrated
1989,MEZOTNE,Lielupe,Lielupe,1062,LV,9390,9568.31,56.44,24.05,24.075,56.425, ,only hist flow ok, ,efas,calibrated
1990,UKMERGE,Vilnya / Neris,Sventoji,1062,LT,5975,5567.3,55.25,24.75,24.675,55.175, ,only hist data flow ok, ,efas,calibrated
1991,L'Erdre (Totale) à Nantes (Saint Felix),L'Erdre,L'Erdre,1062,FR,975,985.61,47.213351,-1.541161,-1.575,47.225, ,flow ok, ,HIST,calibrated
1995,PAPPILANKOSKI,Kokemaenjoki-Archipelago Sea-Bothnian Sea,Eurajoki,1062,FI,1342,1338.17,61.2,21.73,21.725,61.225, ,only hist flow ok, ,efas,calibrated
1997,SAARENPAA,Lestijoki,Lestijoki,1062,FI,1053,1255.73,63.97,23.77,23.825,63.975, ,only hist flow ok, ,efas,calibrated
1998,TOLPANKOSKI (PYHANKOSKI),Pyhtjoki,Tolpankoski,1062,FI,3727,3679.53,64.37,24.4,24.375,64.375, ,only hist flow ok, ,efas,calibrated
1999,LUUJOKI HAARAN ALA PUOLELLE,Oulujoki-Iijoki,Kuivajoki,1062,FI,1352,1290.08,65.62,25.28,25.275,65.625, ,only hist flow ok, ,efas,calibrated
2000,SIMO,Simojoki,Simojoki,1062,FI,3141,3087.07,65.67,25.1,25.125,65.675, ,only hist flow ok, ,efas,calibrated
2001,NIKAKOSKI (NEAR THE MOUTH),Kalajoki,Kalajoki,1062,FI,3513,3124.66,64.2,24.12,24.125,64.225, ,only hist flow ok, ,efas,calibrated
2004,VUOSJARVI. HUOPANANKOSKI,Kymijoki. Keitele catchment,Huopanankoski,1062,FI,2255,2290.45,63.05,25.53,25.525,63.025, ,only hist flow ok, ,efas,calibrated
2005,VAKKOLA (NEAR THE MOUTH),Porvoonjoki,Porvoonjoki,1062,FI,1337,1306.06,60.47,25.62,25.625,60.425, ,only hist flow ok, ,efas,calibrated
2008,HERFORS,Coastal zone,Kruunupyyn,1062,FI,848692.88,778,63.67,23.08,23.025,63.725, ,only hist flow ok,Wrong upstream area from provider/mapped according to rivername,efas,calibrated
2010,MOVANAGHER,Bann,Lower Bann,1062,UK,5340,5217.27,54.977,-6.547,-6.575,54.975, , , ,efas,calibrated
2011,NESET,Moel,Neiden,1062,NO,3035,2935.72,59.37,8.53,8.625,59.325, ,flow ok, ,efas,calibrated
2012,Redbrook,Wye,Wye,1062,UK,4145,4133.86,51.795,-2.684,-2.675,51.775, , , ,efas,calibrated
2013,HERRENHAUSEN,Weser,Leine,1062,DE,5428,5291.9,52.38,9.67,9.675,52.375, , , ,efas,calibrated
2015,Nantgaredig,R. Towy,Tywi,1062,UK,1117,1107.86,51.863,-4.2,-4.175,51.875, , , ,efas,calibrated
2018,THORVERTON,Exe,EXE,1062,UK,600.9,643.97,50.8,-3.51,-3.525,50.825, , , ,efas,calibrated
2019,GLAN TEIFI,Teifi,TEIFI,1062,UK,893.6,914.99,52.04,-4.56,-4.575,52.025, , , ,efas,calibrated
2020,BOARA PISANI,Adige,Adige,1062,IT,12229,13549.63,45.1,11.82,11.775,45.125, , , , ,calibrated
2021,La Midouze à Campagne,Adour,Midouze,1062,FR,2541,2497.93,43.90752,-0.659244,-0.675,43.925, ,flow ok, ,efas,calibrated
2022,GOCH,Meuse / Maas,Niers,1062,DE,1319,1452.84,51.68,6.15,6.175,51.675, ,flow ok, ,efas,calibrated
2028,ZALAAPATI,Danube,Zala,1062,HU,1596.67,1568,46.73,17.11,17.125,46.725, ,flow ok, ,efas,calibrated
2029,LOM,Danube,Danube,1062,BG,585869.22,580261.31,43.84,23.24,23.275,43.825, ,only hist flow ok, ,efas,calibrated
2031,Tarnava Mare - BLAJ,Danube,Tarnava Mare,1062,RO,3775,3667.2,46.170901,23.920442,23.925,46.175, ,only hist flow ok,moved downstream of confluence  close to 785/close to 785,efas,calibrated
2032,Strei - PETRENI,Danube,Strei,1062,RO,1750,1737.66,45.8,23.033333,22.975,45.725, ,only hist flow ok, ,efas,calibrated
2036,Bajina Bašta,Danube,Dunav,1062,BA,6298.27,14960.54,43.98,19.55,19.525,43.975, ,strange drain area only hist flow ok, ,efas,calibrated
2128,VASSBOTTEN,Glomma,ENNINGDALSAELVEN,1062,SE,624.1,675.97,58.88,11.54,11.525,58.875, ,flow ok, ,efas,calibrated
2130,GROETSJOEN,Osterdalalven,GROETSJOEN,1062,SE,565,617.2,61.81,12.44,12.425,61.825, ,flow ok, ,efas,calibrated
2137,NIEMISEL,Kalixalv,RANEAELVEN,1062,SE,3780.8,3729.95,66.02,21.97,21.925,66.025, ,flow ok, ,efas,calibrated
2147,KINDTHAL,Mura,MUERZ,1062,AT,727.7,752.15,47.52,15.47,15.475,47.525, ,flow ok, ,efas,calibrated
2150,SCHWAIBACH,Rhine. section Ill - Neckar,KINZIG (TRIB. RHEIN),1062,DE,954,907.48,48.39,8.03,8.025,48.425, ,flow ok, ,efas,calibrated
2151,STEIN,Neckar,KOCHER,1062,DE,1929,1991.07,49.25,9.28,9.275,49.225, ,flow ok, ,efas,calibrated
2154,VLOTHO,Weser,WESER,1062,DE,17618,17655.78,52.17,8.86,8.925,52.175, , , ,efas,calibrated
2156,MARKLENDORF,Aller,ALLER,1062,DE,7209,6768.64,52.68,9.7,9.625,52.725, , , ,efas,calibrated
2158,SCHMITTLOTHEIM,Fulda,EDER,1062,DE,1202,1188.56,51.15,8.89,8.875,51.125, , , ,efas,calibrated
2159,GUNTERSHAUSEN,Fulda,FULDA,1062,DE,6366,6475.22,51.22,9.46,9.475,51.225, , , ,efas,calibrated
2161,SCHWARMSTEDT,Aller,LEINE,1062,DE,6443,6503.6,52.68,9.6,9.575,52.625, , , ,efas,calibrated
2163,HELDRA,Weser,WERRA,1062,DE,4302,4318.04,51.12,10.19,10.225,51.125, , , ,efas,calibrated
2164,BODENWERDER,Weser,WESER,1062,DE,15924,16032.75,51.97,9.51,9.475,51.925, , , ,efas,calibrated
2165,DOERVERDEN,Aller,WESER,1062,DE,22110,22374.54,52.85,9.21,9.175,52.825, , , ,efas,calibrated
2169,DALUM,Ems,EMS,1062,DE,4981,4900.94,52.59,7.24,7.225,52.625, ,flow ok, ,efas,calibrated
2170,GREVEN,Ems,EMS,1062,DE,2842,2813.41,52.09,7.6,7.575,52.125, ,flow ok, ,efas,calibrated
2172,TREIA,Eider,TREENE,1062,DE,481,466.97,54.51,9.31,9.325,54.525, , , ,efas,calibrated
2174,Rudolstadt,Saale,SAALE,1062,DE,2678,2666.08,50.7193,11.3352,11.325,50.675, ,flow ok, ,efas,calibrated
2177,KETZIN,Havel. below Spree,HAVEL,1062,DE,16173,15141.92,52.48,12.85,12.825,52.475, ,influenced by reserv NOT in glofas, ,efas,calibrated
2180,KLEMPENOW,Peene,TOLLENSE,1062,DE,1403,1419.53,53.79,13.31,13.275,53.825, ,flow ok, ,efas,calibrated
2182,Lenggries,Isar,ISAR,1062,DE,-999,1466.28,47.6849,11.5732,11.575,47.675, , , ,efas,calibrated
2190,KILJAFOSS,Hvita,HVITA,1062,IS,3665.28,3689.328384,64.69,-21.41,-21.675,64.625, , , ,efas,calibrated
2191,SELFOSS,OELFUSA,OELFUSA,1062,IS,5662,5725.981696,63.93,-21,-20.975,63.975, , , ,efas,calibrated
2193,THJORSARTUN,Pjorsa,THJORSA,1062,IS,7314,7340.012544,63.93,-20.63,-20.675,63.925, , , ,efas,calibrated
